,매장 이름,매장 주소,지역구,위도,경도
0,GS25CBS점,"서울 양천구 목동서로159-1 (목1동 917-1, CBS방송국1층)",양천구,37.527871,126.874094
1,GS25DDMC점,"서울 마포구 매봉산로75, 1층 107호 (상암동 1610)",마포구,37.57500290000001,126.8907786
2,GS25DMC가재울점,"서울 서대문구 가재울미래로2, 203동 101호 (남가좌동 385, 2단지)",서대문구,37.5710357,126.9109522
3,GS25DXLAB점,"서울 강남구 테헤란로223, 1층 101호 (역삼동 677-25, 큰길타워빌딩)",강남구,37.5023634,127.0406629
4,GS25G고덕점,서울 강동구 고덕로39 (암사3동 441-14),강동구,37.5551013,127.1295717
5,GS25G서초연일점,"서울 서초구 남부순환로2451 (서초1동 1426-13, 연일주유소)",서초구,37.4825475,127.0185027
6,GS25G신사남서울점,"서울 서초구 나루터로83 (잠원동 13-6, 남서울주유소)",서초구,37.516125,127.0189392
7,GS25G여의도점,"서울 영등포구 은행로64, GS칼텍스內편의점(여의도동 10-1)",영등포구,37.5303375,126.9255792
8,GS25KD사옥점,서울 성동구 왕십리로125 (성수동1가 656-292),성동구,37.5489087,127.0439869
9,GS25LG광화문점,"서울 종로구 새문안로58, 지하2층 (신문로2가 92, LG광화문빌딩)",종로구,37.5693066,126.9715349
10,GS25LG사이언스파크점,"서울 강서구 마곡중앙10로10, 지하1층 (마곡동 770, 엘지사이언스파크)",강서구,37.5724803,126.837837
11,GS25LG유플러스용산점,"서울 용산구 한강대로32, 지하1층 (한강로3가 65-228, 엘지유플러스)",용산구,37.5238025,126.9636168
12,GS25R강동4점,"서울 강동구 구천면로200, 강동지사 4층 (천호동 419-3, 한국마사회)",강동구,37.540006,127.1266501
13,GS25R강동5점,"서울 강동구 구천면로200, 마사회 강동지사 5층 (천호동 419-3)",강동구,37.540006,127.1266501
14,GS25R도봉4점,"서울 도봉구 노해로67길14, 4층 (창동 8, 한국마사회)",도봉구,37.6522542,127.0493815
15,GS25R도봉8점,"서울 도봉구 노해로67길14, 8층 (창동 8, 한국마사회창동지점)",도봉구,37.652258,127.04939
16,GS25R서울강남4점,"서울 강남구 도산대로529, 4층 (청담동 125-17, KRA프라자)",강남구,37.52505130000001,127.0513034
17,GS25R선릉7점,"서울 강남구 테헤란로416, 마사회선릉지사 7층 (대치동 890-8, 연봉빌딩)",강남구,37.5049603,127.0519363
18,GS25R영등포4점,"서울 영등포구 영중로8길14, 4층 (영등포동3가 18, 영등포케이빌딩)",영등포구,37.51812839999999,126.9070089
19,GS25R영등포6점,"서울 영등포구 영중로8길14, 6층 (영등포동3가 18, 영등포케이빌딩)",영등포구,37.51812839999999,126.9070089
20,GS25R영등포8점,"서울 영등포구 영중로8길14, 8층 (영등포동3가 18, 마사회)",영등포구,37.51842310000001,126.9087671
21,GS25S6고려대역점,"서울 성북구 종암로지하 1, 6호선 고려대역 지하철역사 (종암동 29-18)",성북구,37.5903824,127.036203
22,GS25S6공덕역점,"서울 마포구 백범로지하 200, 지하1층 (공덕동 439, 공덕역)",마포구,37.5436847,126.9514541
23,GS25S6광흥창역점,"서울 마포구 독막로지하 165, 6호 호선 광흥창역 (창전동 145-17)",마포구,37.547478,126.931855
24,GS25S6구산역점,"서울 은평구 연서로지하 137-1, 6호선 구산역 지하1층 1001호 (구산동)",은평구,35.2413715,128.8725122
25,GS25S6녹사평역점,"서울 용산구 녹사평대로지하 195, 지하 (용산동4가 4)",용산구,37.53479189999999,126.9870163
26,GS25S6대흥역점,"서울 마포구 대흥로지하 85, 6호 호선 대흥역 (대흥동 128-1)",마포구,37.547674,126.942332
27,GS25S6돌곶이역점,"서울 성북구 화랑로지하 243, 지하철 역사 (석관동 349-8, 6호선)",성북구,37.6105223,127.0572772
28,GS25S6동묘앞역점,서울 종로구 지봉로지하 24 (숭인동 316-3),종로구,37.5716765,127.0158422
29,GS25S6마포구청역점,"서울 마포구 월드컵로지하 190 (성산동 592, 마포구청역)",마포구,37.5649979,126.9015161
30,GS25S6망원역점,"서울 마포구 월드컵로지하 77 (망원동 378, 6호선망원역)",마포구,37.5557572,126.909907
31,GS25S6보문역점,"서울 성북구 보문로지하 116 (보문동1가 127-1, 6호선 보문역역사)",성북구,37.5855633,127.0201782
32,GS25S6봉화산역점,"서울 중랑구 신내로지하 232, 지하철역사내 (신내동 643-1, 6호선)",중랑구,37.6083906,127.0954925
33,GS25S6삼각지역점,"서울 용산구 한강대로지하 185, 지하3층 (한강로1가 228-1, 6호선 삼각지역)",용산구,37.5343935,126.9730142
34,GS25S6상수역점,"서울 마포구 독막로지하 85, 6호 호선 상수역 (상수동 309-10)",마포구,37.547736,126.92296
35,GS25S6상암DMC역2점,"서울 은평구 수색로지하 175, 6호선 디지털미디어시티역 지하1층 (증산동 223-25)",은평구,37.5779636,126.9004205
36,GS25S6상월곡역점,"서울 성북구 화랑로지하 157, 지하철 6호선 상월곡역 역사 내 (상월곡동 26-1)",성북구,37.6066,127.048862
37,GS25S6석계역점,"서울 노원구 화랑로지하 347-1, 월계동 석계역 6호선 (월계동 25-2)",노원구,37.6263035,127.0616377
38,GS25S6신당역점,"서울 중구 다산로지하 260, 지하 (흥인동 162-1, 신동역 6호선)",중구,37.567534,127.0161118
39,GS25S6안암역점,"서울 성북구 인촌로지하 89, 6호선 지하철 역사 내 (안암동5가 146-1)",성북구,37.5862871,127.0248899
40,GS25S6약수역점,"서울 중구 다산로지하 115, 지하층 (신당동 369-2, 약수역 6호선)",중구,37.5550173,127.0103572
41,GS25S6역촌역점,"서울 은평구 서오릉로지하 63, 지하1층 1001호 (녹번동 153-31, 6호선 역촌역사무소)",은평구,37.606123,126.922791
42,GS25S6연신내역점,"서울 은평구 통일로지하 849, 6호선 연신내역 지하1층 1001호 (갈현동)",은평구,,
43,GS25S6월곡역점,"서울 성북구 월곡로지하 107, 6호선 월곡역 역사 (하월곡동 35-1)",성북구,37.601925,127.04153
44,GS25S6응암역점,"서울 은평구 증산로지하 477, 지하2층 2001호(6호선 응암역) (역촌동 85-41)",은평구,37.598472,126.915592
45,GS25S6이태원역점,"서울 용산구 이태원로지하 177, 이태원역 B1 1001호 (이태원동 119-23)",용산구,37.534194,126.9905285
46,GS25S6증산역점,"서울 은평구 증산로지하 306, 6호선 증산역 지하1층 1001호 (증산동 199-8)",은평구,37.583933,126.909686
47,GS25S6창신역점,서울 종로구 지봉로지하 112 (창신동 20-8),종로구,37.5791968,127.0153255
48,GS25S6한강진역점,"서울 용산구 이태원로지하 287, 지하1층 (한남동 726-494, 6호선 한강진역)",용산구,37.539838,127.001766
49,GS25S6합정역점,"서울 마포구 양화로지하 45, 6호선 지하1층 편의점 (합정동)",마포구,37.5495753,126.9139908
50,GS25S6화랑대역점,"서울 노원구 화랑로지하 510, 지하철 역사 내 (공릉동 285-2)",노원구,37.6245739,127.0830557
51,GS25S6효창공원앞역점,"서울 용산구 백범로지하 287, 6호선 효창공원앞역 지하1층 (효창동)",용산구,37.539289,126.961339
52,GS25S8가락시장역점,"서울 송파구 송파대로지하 257, 8호선 지하철 역사 (가락동 184-23)",송파구,37.4928982,127.1180582
53,GS25S8강동구청역점,"서울 강동구 올림픽로지하 550, 8호선 지하철 역사 내 (성내동)",강동구,37.5302922,127.1287651
54,GS25S8몽촌토성역점,"서울 송파구 올림픽로지하 383, 신천동 8호선 지하철 역사 (신천동 19)",송파구,37.5140651,127.1023031
55,GS25S8문정역점,서울 송파구 장지동56번지 8호선 지하철 역사 내부,송파구,37.4840866,127.1370652
56,GS25S8복정역점,서울 송파구 장지동600 8호선지하철역사 내,송파구,37.4713156,127.1280785
57,GS25S8석촌역점,"서울 송파구 송파대로지하 439, 8호선 지하철 역사 (석촌동 209)",송파구,37.5067662,127.1054591
58,GS25S8송파역점,"서울 송파구 송파대로지하 354, (8호선 지하철 역사내) (가락동 459-4)",송파구,37.4997126,127.1122396
59,GS25S8암사역점,"서울 강동구 올림픽로지하 776, 지하철 8호선 암사역 역사 내 (암사동 501)",강동구,37.550148,127.127519
60,GS25S8장지역점,서울 송파구 송파대로지하 82 (장지동 201-5),송파구,37.4776196,127.1265061
61,GS25S9가양역점,서울 강서구 양천로지하 485 (가양동 14-61),강서구,37.5617266,126.8539792
62,GS25S9개화역점,"서울 강서구 개화동로8길38, 내 지하층 (개화동 388-1, 개화역사)",강서구,37.5804064,126.7949617
63,GS25S9고속터미널역점,서울 서초구 신반포로지하 188 (반포동 19-11),서초구,37.5041437,126.9970518
64,GS25S9공항시장역점,"서울 강서구 방화동로지하 30 (공항동 산20-2, 공항시장역내)",강서구,37.5634835,126.8106065
65,GS25S9구반포역점,"서울 서초구 신반포로지하 17, 구반포역 역사 내 (반포동 817)",서초구,37.501431,126.987427
66,GS25S9국회의사당역점,"서울 영등포구 국회대로지하 758, 지하철역 (여의도동 1-6)",영등포구,37.5273754,126.918519
67,GS25S9김포공항역점,"서울 강서구 하늘길지하 77, 김포공항역 지하 (방화동 886)",강서구,37.562402,126.801289
68,GS25S9노들역점,"서울 동작구 노량진로지하 238, 노들역 역사 내 (본동 475-1)",동작구,37.513416,126.952213
69,GS25S9노량진역점,서울 동작구 노량진로지하 130 (노량진동 60-11),동작구,37.5135467,126.9408438
70,GS25S9당산역점,"서울 영등포구 양평로지하 40, 당산역 내부 (당산동6가 227-1)",영등포구,37.533782,126.9020409
71,GS25S9동작역점,서울 동작구 현충로지하 220 (동작동 326),동작구,37.5019003,126.9682874
72,GS25S9등촌역점,"서울 강서구 공항대로지하 529 (등촌동 666-94, 등촌역 내)",강서구,37.55124139999999,126.8645132
73,GS25S9마곡나루역점,"서울 강서구 마곡중앙5로지하 2 (마곡동 760-3, 마곡나루역내)",강서구,37.564979,126.827427
74,GS25S9봉은사역점,"서울 강남구 봉은사로지하 601, , 9호선봉은사역 내 (삼성동 111-8)",강남구,37.514221,127.060266
75,GS25S9사평역점,서울 서초구 사평대로지하 285 (반포동 128-7),서초구,37.5039477,127.0158272
76,GS25S9삼성중앙역점,서울 강남구 봉은사로지하 501 (삼성동 111-147),강남구,37.5085884,127.0405045
77,GS25S9삼전역점,"서울 송파구 백제고분로187 (잠실동 250-5, 파크인-수)",송파구,37.5046802,127.0877732
78,GS25S9샛강역점,서울 영등포구 의사당대로지하 166 (여의도동 5-6),영등포구,37.5229725,126.92247
79,GS25S9석촌역점,"서울 송파구 송파대로지하 439, 지하철9호선 석촌역 (석촌동 209)",송파구,37.5067662,127.1054591
80,GS25S9선유도역점,"서울 영등포구 양평로지하 124, 선유도역 내부 (양평동5가 66-1)",영등포구,37.538501,126.8943554
81,GS25S9송파나루역점,"서울 송파구 송파동3, 지하철 9호선 송파나루역",송파구,37.5096323,127.1119989
82,GS25S9신논현역점,"서울 강남구 봉은사로지하 102, 9호선 신논현역 지하 상가 (역삼동)",강남구,37.504724,127.02538
83,GS25S9신목동역점,"서울 양천구 목동중앙로지하 217 (목동 136-2, 신목동역 내)",양천구,37.5446362,126.8828695
84,GS25S9신반포역점,"서울 서초구 신반포로지하 105, 신반포역 역사 내 (반포동 128-1)",서초구,37.5037042,126.9968419
85,GS25S9신방화역점,"서울 강서구 방화대로지하 301 (방화동 217-156, 신방화역 내)",강서구,37.5674184,126.8160837
86,GS25S9양천향교역점,서울 강서구 양천로지하 341 (가양동 159-3),강서구,37.5686259,126.8407902
87,GS25S9언주역점,"서울 강남구 봉은사로지하 201, 지하 1층 926-1호 (논현동 279-165, 9호선 언주역)",강남구,37.507323,127.033903
88,GS25S9여의도역점,서울 영등포구 의사당대로지하 101 (여의도동 2-6),영등포구,37.5229725,126.92247
89,GS25S9염창역점,서울 강서구 공항대로지하 631 (염창동 284-84),강서구,37.5470283,126.8751669
90,GS25S9올림픽공원역점,서울 송파구 방이동88-26 지하철9호선 올림픽공원역 B1층,송파구,37.5217853,127.1165203
91,GS25S9종합운동장역점,"서울 송파구 올림픽로지하 23, 9호선 종합운동장역 역사 (잠실동 122)",송파구,37.511037,127.073674
92,GS25S9중앙보훈병원역점,서울 강동구 둔촌동6-3 9호선 중앙보훈병원역 B1층,강동구,37.5290973,127.1486529
93,GS25S9증미역점,"서울 강서구 양천로지하 560 (등촌동 666-40, 증미역내)",강서구,37.557504,126.8615681
94,GS25S9한성백제역점,"서울 송파구 위례성대로51, 지하철9호선 한성백제역 지하1층 (방이동 88-21)",송파구,37.5176958,127.1144067
95,GS25S9흑석역점,"서울 동작구 현충로지하 90, 9호선 흑석역 역사내 (흑석동 4)",동작구,37.5084759,126.9640414
96,GS25SH상암1호점,"서울 마포구 월드컵북로434, 107호 (상암동 1590, 상암ITTower)",마포구,37.5815659,126.8860337
97,GS25SI타워점,"서울 강남구 테헤란로203, 1층 (역삼동 679-4)",강남구,37.5015422,127.0377408
98,GS25S가산디지털단지역점,"서울 금천구 벚꽃로309, 7호선 가산디지털단지역 내 상가 3002 (가산동 468-4)",금천구,37.4822545,126.8821832
99,GS25S강남구청역점,서울 강남구 삼성동1 7호선강남구청역내,강남구,37.517168,127.041301
100,GS25S강남역1호점,"서울 강남구 강남대로390, 지하1층 9호 (역삼동 825, 미진프라자)",강남구,37.4977735,127.028536
101,GS25S강남역2호점,"서울 강남구 강남대로390, B3층 38호 (역삼동 825)",강남구,37.4977735,127.028536
102,GS25S강남역3호점,"서울 강남구 강남대로390, 지하3층 (역삼동 825, 신분당선)",강남구,37.4977735,127.028536
103,GS25S건대입구역점,"서울 광진구 능동로지하 110, 지하3층 X-22,23호 (화양동 6-3)",광진구,37.54051690000001,127.0690846
104,GS25S고속터미널역점,서울 서초구 반포동19-3 7호선고속버스터미널,서초구,37.5041299,127.0030692
105,GS25S공덕역점,"서울 마포구 마포대로지하 92, 지하3층 (도화동 25-13, 공덕역)",마포구,37.5427105,126.9516296
106,GS25S공릉역점,"서울 노원구 동일로지하 1074, 내 (공릉동 385-4, 7호선공릉역)",노원구,37.6258623,127.0728393
107,GS25S군자역점,"서울 광진구 능동로277, 지하1층 (군자동 1-9, 군자역내)",광진구,37.554758,127.0778237
108,GS25S김포공항역점,"서울 강서구 하늘길지하 77, 내 (방화동 886, 김포공항역사)",강서구,37.5817785,126.824882
109,GS25S남구로역점,"서울 구로구 도림로지하 7, 7호선 남구로역 내 상가 1001 (구로동 801-95)",구로구,37.486087,126.887272
110,GS25S남성역점,"서울 동작구 사당로14가길19, 사당동, 7호선 남성역 내 (사당동 250-1)",동작구,37.484876,126.970673
111,GS25S내방역점,"서울 서초구 서초대로지하 103 (방배동 874-16, 7호선내방역내)",서초구,37.4882577,126.9931587
112,GS25S노원역점,"서울 노원구 동일로지하 1409, 713동 1016호 (상계동 729, 노원역 7호선)",노원구,37.6536158,127.0607581
113,GS25S논현역점,"서울 강남구 학동로지하 102, 지하1층, GS25 S논현역점(논현역 상가1004) (논현동 279-67)",강남구,37.5111584,127.0216392
114,GS25S당산역1호점,"서울 영등포구 양평로지하 40, 내선8번 2호선 당산역 영등포구청 방면 플랫폼 내 (당산동6가 227-1)",영등포구,37.5349309,126.9027301
115,GS25S당산역2호점,"서울 영등포구 양평로지하 40, 외선7번 2호선 당산역 합정방면 플랫폼 내 (당산동6가 227-1)",영등포구,37.5349309,126.9027301
116,GS25S대림역점,"서울 영등포구 도림로지하 137, 7호 호선 대림역 (대림동 1050-17)",영등포구,37.489049,126.904036
117,GS25S디지털미디어시티역,"서울 마포구 성암로지하 184, 지하 상가 (상암동 1140, 디지털미디어시티역사)",마포구,37.5768079,126.899126
118,GS25S마곡나루역점,"서울 강서구 마곡중앙로지하 135, 공항철도 마곡나루역 지하 1층 (마곡동 373-14)",강서구,37.5654177,126.8271459
119,GS25S마들역점,"서울 노원구 한글비석로530, (7호선마들역내) (상계9동 647, 상계주공12단지아파트)",노원구,37.6652071,127.0591262
120,GS25S매봉역점,"서울 강남구 남부순환로지하 2744, 매봉역내 333-03호 (도곡동 179-2)",강남구,37.4869406,127.0466214
121,GS25S매헌역점,"서울 서초구 매헌로지하 116, 지하층 매장 2호 (양재동 233-2)",서초구,37.4658491,127.0356661
122,GS25S먹골역점,"서울 중랑구 동일로지하 901, 2001호 (묵동 189-5, 먹골역)",중랑구,37.6107683,127.0776921
123,GS25S메트로금호점,"서울 성동구 동호로지하 104, 324-09호 (금호동4가)",성동구,37.5466746,127.0162448
124,GS25S면목역점,"서울 중랑구 겸재로171-5, 면목역 지하1층 GS25 S면목역점 (면목동 120-17)",중랑구,37.5887007,127.087236
125,GS25S반포역점,"서울 서초구 신반포로지하 241, 반포역 상가1054 (잠원동 103)",서초구,37.508213,127.011847
126,GS25S보라매역점,서울 영등포구 신풍로113(신길6동 508),영등포구,37.5000931,126.9188437
127,GS25S사가정역점,"서울 중랑구 사가정로지하 393, 지하철 7호선 사가정역 (면목동 495)",중랑구,37.5817877,127.0843345
128,GS25S상도역점,"서울 동작구 상도로지하 272, 상도역내 지하 1층 (상도1동 702-1)",동작구,37.5028025,126.9476764
129,GS25S상봉역점,"서울 중랑구 망우로297, 상봉역 7호선 지하2층 GS25 S상봉역점 (상봉동 100-9)",중랑구,37.5967056,127.0860055
130,GS25S서울역1호점,"서울 용산구 청파로378, 1층 (동자동 43-205, 한국철도공사)",용산구,37.5490645,126.9704658
131,GS25S서울역2호점,"서울 용산구 청파로378, 지하3층 (동자동 43-205, 한국철도공사)",용산구,37.5490645,126.9704658
132,GS25S수락산역점,"서울 노원구 동일로지하 1662, 수락산역 (상계동 1132-9)",노원구,37.6771548,127.0553068
133,GS25S숭실대입구역점,"서울 동작구 상도로지하 378, 7호선 숭실대입구역 내 상가 1001 (상도동)",동작구,37.496374,126.953504
134,GS25S신대방삼거리역점,"서울 동작구 상도로지하 76, 7호선 신대방삼거리역 내 상가 1001 (대방동 406-10)",동작구,37.4996863,126.9280893
135,GS25S신풍역점,서울 영등포구 신풍로지하 27 (신길6동 3599),영등포구,37.5002786,126.9094236
136,GS25S양재역1호점,서울 서초구 양재동12-1 신분당선양재역내 B1-27,서초구,37.4842759,127.0348189
137,GS25S양재역2호점,"서울 서초구 남부순환로지하 2585, B3-41호 (서초2동 1366-9, 신분당선양재역내)",서초구,37.48476050000001,127.033371
138,GS25S어린이대공원역점,"서울 광진구 능동로지하 210, 어린이대공원 역 상가1001 (화양동 164-1, 세종대)",광진구,37.547913,127.07461
139,GS25S온수역점,서울 구로구 온수동73 7호선온수역내,구로구,37.4952733,126.817642
140,GS25S용마산역점,"서울 중랑구 용마산로지하 227, 용마산역 상가1001 (면목동 1316-5)",중랑구,37.57379299999999,127.086818
141,GS25S이수역점,"서울 동작구 사당로지하 310, 7호선內(사당2동 144-4)",동작구,37.4849508,126.980963
142,GS25S장승배기역점,"서울 동작구 상도로지하 188, 장승배기 역사 내 (상도동 26-20)",동작구,37.504905,126.939191
143,GS25S종합운동장역점,"서울 송파구 올림픽로지하 23, 2호선 종합운동장역 지하상가 4호 (잠실동)",송파구,37.511037,127.073674
144,GS25S중계역점,"서울 노원구 동일로지하 1308-1, 중계역 7호선 역사 내 (중계동 503-3)",노원구,37.6447079,127.0642313
145,GS25S중곡역점,"서울 광진구 능동로415-1, 7호 호선중곡역내 (중곡3동 167-1)",광진구,37.5662286,127.0842273
146,GS25S중화역점,서울 중랑구 동일로지하 797 (중화1동 50-3),중랑구,37.6015691,127.0806255
147,GS25S천왕역점,"서울 구로구 오리로지하 1154 (오류동 174-5, 7호선 청왕역내)",구로구,37.4943867,126.8325917
148,GS25S청계산역점,"서울 서초구 청계산로지하 179, 청계산입구역 지하1층 GS25 S청계산역점 (신원동 270-25)",서초구,37.448215,127.054726
149,GS25S청담역점,"서울 강남구 학동로87길7, (7호선청담역) (청담동 75-1, 현대아파트)",강남구,37.5193565,127.0515067
150,GS25S태릉입구역점,"서울 노원구 동일로지하 992-1, 717동 1002호 (공릉동 616-4, 태릉입구역)",노원구,37.6191035,127.0751197
151,GS25S하계역점,"서울 노원구 동일로지하 1196, 지하1층 GS25 (하계동 273-5)",노원구,37.6351911,127.0685438
152,GS25S학동역점,"서울 강남구 학동로지하 180 (논현동 279-67, 지하상가)",강남구,37.5111584,127.0216392
153,GS25S홍대역사점,"서울 마포구 양화로지하 160, 홍대입구역(2) 239-108호 (동교동 165)",마포구,37.5567292,126.9236419
154,GS25S홍대입구역점,"서울 마포구 양화로지하 188, B2F R01호 (동교동 190-1)",마포구,37.557643,126.926422
155,GS25T타운점,"서울 마포구 마포대로144 (공덕동 252-5, 마포티타운)",마포구,37.54694509999999,126.9537329
156,GS25YG신사옥점,"서울 마포구 희우정로1길7, 2층 (합정동 397-9)",마포구,37.5488598,126.907958
157,GS25가든파이브점,"서울 송파구 충민로66(문정2동 634, 가든파이브라이프패션관B1-1028호)",송파구,37.4775778,127.1249983
158,GS25가락금호점,"서울 송파구 송파대로32길15 (가락본동 95-1, 가락금호아파트)",송파구,37.4967125,127.1160969
159,GS25가락명성점,"서울 송파구 송이로23길18, 1층 (가락2동 144-20)",송파구,37.4958024,127.1250933
160,GS25가락몰점,"서울 송파구 양재대로932, 1층 1호 (가락동 600, 업무동)",송파구,37.492994,127.112326
161,GS25가락미륭점,"서울 송파구 동남로11길12, 1층 (가락동 135-24)",송파구,37.49318420000001,127.1275699
162,GS25가락본점,"서울 송파구 오금로36길69-14, 1층 (가락동 49-10)",송파구,37.4977069,127.1214126
163,GS25가락센타점,서울 송파구 오금로44가길9 (가락동 170),송파구,37.4972505,127.1347831
164,GS25가락스타점,"서울 송파구 송파대로30길16, 110호(가락본동 98, 두산위브센티움)",송파구,37.4945505,127.1191177
165,GS25가락우정점,"서울 송파구 중대로23길20, 104호(가락본동 8-1, 우정에쉐르)",송파구,37.5026008,127.1257903
166,GS25가락으뜸점,"서울 송파구 오금로36길46, 1층 (가락본동 41, 덕봉빌딩)",송파구,37.50001779999999,127.1230128
167,GS25가락제일점,서울 송파구 동남로13길50 (가락2동 123-17),송파구,37.4939759,127.1247233
168,GS25가락중대로점,서울 송파구 송이로24길15 (가락동 116-8),송파구,37.4927594,127.1228931
169,GS25가락진흥점,"서울 송파구 양재대로66길44, 1층 (가락본동 35-10, 진흥빌딩)",송파구,37.4995673,127.1255029
170,GS25가락타운점,"서울 송파구 양재대로62길47, 101호(가락본동 76-9)",송파구,37.4959439,127.1207388
171,GS25가리봉사랑점,"서울 구로구 구로동로7길57, 1층 (가리봉동 13-37)",구로구,37.4865091,126.88341
172,GS25가리봉역점,"서울 금천구 벚꽃로286, 1층 107호(가산동 60-15, 리더스타워)",금천구,37.4803075,126.8841943
173,GS25가산V1점,"서울 금천구 가산디지털1로171, 114호 (가산동 371-41, 가산에스케이브이원센터)",금천구,37.4806318,126.8805702
174,GS25가산대륭점,서울 금천구 가산디지털1로25 (가산동 670),금천구,37.4681345,126.8861139
175,GS25가산두산점,서울 금천구 가산로3길113(독산1동 335-14),금천구,37.47182069999999,126.8893761
176,GS25가산디폴리스점,"서울 금천구 서부샛길606, 107호 (가산동 543-1, 대성디폴리스지식산업센터)",금천구,37.4799094,126.8771946
177,GS25가산미소점,"서울 금천구 서부샛길528, 1층 103호 (가산동 550-17, 미소지움)",금천구,37.4762501,126.8788617
178,GS25가산백상점,"서울 금천구 디지털로9길65, 102호(가산동 60-17, 드림타워9차)",금천구,37.4802172,126.885229
179,GS25가산본점,서울 금천구 남부순환로112길15 (가산동 147-25),금천구,37.47786019999999,126.8950211
180,GS25가산세진점,"서울 금천구 벚꽃로278, B138호(가산동 60-19, 세진테크노빌)",금천구,37.4793995,126.8846023
181,GS25가산스타점,"서울 금천구 디지털로9길99, 126호(가산동 60-11, 스타밸리)",금천구,37.4816074,126.8848307
182,GS25가산에이스점,"서울 금천구 가산디지털2로173, 103호 (가산동 459-23)",금천구,37.4777135,126.8794359
183,GS25가산엘지점,서울 금천구 가산디지털1로51(가산동 327-23),금천구,37.470697,126.8849589
184,GS25가산태양점,"서울 금천구 시흥대로153길89, 1층 (가산동 149-27)",금천구,37.4760861,126.893781
185,GS25가산포스트6차점,"서울 금천구 벚꽃로298, 125호 (가산동 50-3, 대륭포스트타워6차)",금천구,37.4813244,126.8837789
186,GS25가산프리미어점,"서울 금천구 가산디지털1로88, 1층 , 103호 (가산동 345-50, IT프리미어타워)",금천구,37.47382229999999,126.8853145
187,GS25가산하이엔드점,"서울 금천구 가산디지털1로233, 107호 (가산동 481-2, 에이스하이엔드타워9차)",금천구,37.4858614,126.878475
188,GS25가산하이힐점,서울 금천구 디지털로12길21(가산동 143-44),금천구,37.4777309,126.8898822
189,GS25가양2점,"서울 강서구 허준로47, 상가(가양1동 1461, 가양도시개발공사아파트)",강서구,37.5703714,126.8474442
190,GS25가양7단지점,서울 강서구 허준로209 (가양동 1486),강서구,37.5617356,126.861515
191,GS25가양8단지점,서울 강서구 허준로176 (가양동 1482),강서구,37.561996,126.8571387
192,GS25가양글로벌점,"서울 강서구 화곡로72길62, 107호 (가양동 448-11, 가양글로벌퍼스트)",강서구,37.5601285,126.8585684
193,GS25가양더리브점,"서울 강서구 양천로400-12, 1층 105호 (가양동 54-6, 더리브골드타워)",강서구,37.5652617,126.8458748
194,GS25가양데시앙점,"서울 강서구 양천로418, 1층 일부 (등촌동 10-14)",강서구,37.564652,126.8477496
195,GS25가양메르디앙점,"서울 강서구 양천로516, 103호 (등촌동 720)",강서구,37.5461818,126.8602749
196,GS25가양우성점,"서울 강서구 양천로57길10-20, 상가 104호(가양2동 1480-5, 이스타빌)",강서구,37.5625848,126.8529938
197,GS25가양테크노점,"서울 강서구 화곡로68길15, , 22번지 103호 (등촌동 628-7, 아벨테크노지식산업센터)",강서구,37.5593942,126.8554059
198,GS25가양향교점,"서울 강서구 양천로49길54, 101호 (가양동 194-2, 양천향교지웰에스테이트)",강서구,37.5710424,126.8407878
199,GS25가재울아이파크점,"서울 서대문구 가재울미래로2, 103동 102호 (남가좌동 385, 1단지)",서대문구,37.5710357,126.9109522
200,GS25가재울현대점,"서울 서대문구 모래내로15길50, 1층 (남가좌동 197-5)",서대문구,37.57383310000001,126.919652
201,GS25가좌행복점,"서울 마포구 성암로28, 110호 (성산동 134-2, 가좌역행복주택)",마포구,37.5692247,126.9131146
202,GS25갈월하늘점,서울 용산구 한강대로328 (갈월동 10),용산구,37.5474937,126.9720887
203,GS25갈현대성점,"서울 은평구 갈현로33길14-1, 1층 (갈현동 445-15)",은평구,37.6209085,126.9147799
204,GS25갈현럭키점,"서울 은평구 서오릉로232, 2층 (갈현2동 327-13)",은평구,37.6155684,126.9088497
205,GS25갈현사랑점,"서울 은평구 연서로17길46-1, 1층 우측상가 (갈현동 497-13)",은평구,37.614131,126.9125293
206,GS25갈현센터점,"서울 은평구 통일로85길5, 1층 (갈현동 394-10)",은평구,37.622004,126.9190788
207,GS25갈현제일점,"서울 은평구 갈현로265, 1층(갈현1동 433-3)",은평구,37.6206014,126.9161697
208,GS25갈현중앙점,"서울 은평구 통일로89길5, 1층 (갈현1동 413-1)",은평구,37.62448029999999,126.9190146
209,GS25갈현코어점,"서울 은평구 갈현로121, 1층 (구산동 26-7)",은평구,37.6086768,126.9107331
210,GS25갈현파크점,"서울 은평구 갈현로25길14, 1층 101호 (갈현동 515-18)",은평구,37.61750490000001,126.9135573
211,GS25갈현포인트점,"서울 은평구 갈현로303 (갈현1동 422-35, 제일은행갈현시장)",은평구,37.6238478,126.9168521
212,GS25갈현하늘점,서울 은평구 갈현로45길26 (갈현동 12-22),은평구,37.6275,126.9163981
213,GS25갈현행복점,서울 은평구 갈현로37길3(갈현1동 434-22),은평구,37.6220596,126.9162992
214,GS25갈현행운점,"서울 은평구 연서로19길8, 1층 (갈현동 463-4)",은평구,37.61365139999999,126.916812
215,GS25강남N타워점,"서울 강남구 테헤란로129, 강남N타워 GF층 7호 (역삼동 648-17)",강남구,37.4997777,127.0324107
216,GS25강남YBM점,서울 강남구 강남대로94길9 (역삼동 818-14),강남구,37.4994466,127.0280846
217,GS25강남개포점,"서울 강남구 개포로15길10, 1층 (개포동 1244-14)",강남구,37.4791521,127.0453104
218,GS25강남나누리점,"서울 강남구 언주로147길10, 1층 (논현동 63-19)",강남구,37.5199548,127.0333889
219,GS25강남동원점,"서울 강남구 테헤란로77길7(삼성2동 143-28, 동원빌딩)",강남구,37.5068892,127.0544955
220,GS25강남드림하이점,"서울 강남구 헌릉로569길21-30, 104호 (세곡동 615, 드림하이오피스텔)",강남구,37.4669997,127.1076944
221,GS25강남로데오점,"서울 강남구 압구정로54길16, 1층 (신사동 662-18)",강남구,37.5267929,127.0392573
222,GS25강남메트로점,"서울 강남구 테헤란로101, A동 10호(역삼1동 821-1, 대우쇼핑타운)",강남구,37.4986253,127.0280285
223,GS25강남본점,"서울 강남구 테헤란로2길8, 1층 (역삼동 825-1)",강남구,37.4976053,127.0286852
224,GS25강남사랑점,서울 강남구 역삼로15길20 (역삼동 749-5),강남구,37.4961175,127.0354853
225,GS25강남상록회관점,서울 강남구 언주로98길25 (역삼동 699-27),강남구,37.5048633,127.0439301
226,GS25강남성심병원점,"서울 영등포구 신길로1, 1층 일부 (대림1동 948-1, 강남성심병원)",영등포구,37.4930694,126.9087936
227,GS25강남세곡점,"서울 강남구 밤고개로21길25, 상가동 지상1층 103호, 104호 (자곡동 361)",강남구,37.4660796,127.1095966
228,GS25강남센타점,서울 서초구 강남대로465(서초4동 1303-22),서초구,37.5037208,127.0240967
229,GS25강남쉐르빌점,"서울 강남구 강남대로328, 111호 (역삼1동 832-3, 강남역쉐르빌오피스텔)",강남구,37.4923816,127.0309489
230,GS25강남시티힐점,"서울 강남구 강남대로98길17, 지하1층 (역삼동 620-9, 시티힐빌딩)",강남구,37.5009906,127.0279221
231,GS25강남신사점,서울 강남구 언주로173길13 (신사동 619-3),강남구,37.528005,127.0324309
232,GS25강남쌍용점,"서울 강남구 테헤란로4길46, 109호(역삼1동 826-37, 쌍용플래티넘)",강남구,37.4953323,127.0303725
233,GS25강남아트점,"서울 강남구 강남대로102길40, 1층 (역삼동 618-3)",강남구,37.50337529999999,127.0284261
234,GS25강남에이스타워점,"서울 강남구 자곡로174-10, 1동 107호, 108호 (자곡동 649, 강남에이스타워G9)",강남구,37.5079427,127.1054145
235,GS25강남역삼점,"서울 강남구 봉은사로48길32, 지하1층 2호 (역삼동 690-29)",강남구,37.5073557,127.0420468
236,GS25강남영동점,서울 강남구 논현로149길50(논현1동 5-19),강남구,37.5173245,127.0245055
237,GS25강남유블레스점,"서울 강남구 자곡로180, 111-2호 (자곡동 651, 강남유탑유블레스오피스텔)",강남구,37.4675347,127.1085031
238,GS25강남쥬비스점,"서울 강남구 삼성로434, 1층 (대치동 942-4, 쥬비스타워)",강남구,37.5056593,127.0576587
239,GS25강남청담점,"서울 강남구 학동로441, 1층 (청담동 46-9)",강남구,37.518844,127.0490663
240,GS25강남타운점,"서울 강남구 테헤란로115, 1층(역삼1동 649-10, 서림빌딩)",강남구,37.4990285,127.029901
241,GS25강남태강점,"서울 강남구 테헤란로10길14, 1층(역삼1동 823-8, 태강빌딩)",강남구,37.4981623,127.032323
242,GS25강남태양점,"서울 강남구 봉은사로4길29, 1층 (역삼1동 812)",강남구,37.5029389,127.0268529
243,GS25강남프리미엄점,서울 서초구 서초대로77길13 (서초동 1317-7),서초구,37.4988106,127.0261307
244,GS25강남헤븐리치점,"서울 강남구 봉은사로170, 상가 107호 (역삼동 605-17)",강남구,37.506491,127.0328025
245,GS25강동강변점,"서울 강동구 구천면로155, 1층 (천호동 339-45)",강동구,37.5420645,127.1222163
246,GS25강동개나리점,서울 강동구 구천면로323 (암사동 488-30),강동구,37.5483677,127.1353356
247,GS25강동기쁨점,"서울 강동구 풍성로106, 102-1호 (성내동 120-60)",강동구,37.5321532,127.1238316
248,GS25강동둔촌점,서울 강동구 풍성로65길71 (둔촌동 461),강동구,37.5307702,127.1412581
249,GS25강동래미안점,"서울 강동구 천호대로163길21, 1층 (천호동 450-40)",강동구,37.5375459,127.1308903
250,GS25강동리버점,서울 강동구 올림픽로89길11 (천호동 322),강동구,37.5473726,127.1256147
251,GS25강동리버힐점,서울 강동구 올림픽로680 (천호동 357-11),강동구,37.5419771,127.1248867
252,GS25강동명일역점,서울 강동구 양재대로1637 (명일동 312-58),강동구,37.5516741,127.1438047
253,GS25강동베르네점,"서울 강동구 성내로6길20, 108호 (성내1동 556-2, 청일 베르네)",강동구,37.5289686,127.1222046
254,GS25강동베스트점,서울 강동구 양재대로103길13 (성내동 380-14),강동구,37.5328052,127.1371197
255,GS25강동삼성점,"서울 강동구 상일로5길8, 1층 (상일동 269-7)",강동구,37.5490923,127.1725772
256,GS25강동상생점,서울 강동구 동남로65길11 (명일동 176),강동구,37.5475697,127.155414
257,GS25강동성내점,"서울 강동구 양재대로97길7, 1층 (성내동 397)",강동구,37.5309497,127.136719
258,GS25강동성심점,"서울 강동구 성안로156, 1층 3호 (길동 416-6, 우주빌딩)",강동구,37.5368366,127.1354009
259,GS25강동성일점,"서울 강동구 성내로13길14, 1층 102호 (성내동 543)",강동구,37.5286377,127.1275271
260,GS25강동세무서점,"서울 강동구 천호대로1139, 1층 (길동 459-3, 강동그린타워)",강동구,37.5345686,127.1381132
261,GS25강동아이파크점,"서울 강동구 고덕로80길123, 고덕센트럴아이파크 1상가 108호 (상일동 131)",강동구,37.5532829,127.1655094
262,GS25강동암사점,"서울 강동구 고덕로20마길29, 1층 (암사1동 469-30)",강동구,37.5521612,127.1320255
263,GS25강동원일점,서울 강동구 올림픽로92길6 (천호동 315-6),강동구,37.5476275,127.1271915
264,GS25강동으뜸점,서울 강동구 양재대로1335 (성내동 429-3),강동구,37.5255262,127.1348628
265,GS25강동제일점,"서울 강동구 올림픽로622 (성내2동 78-10, 케이디빌딩)",강동구,37.5368735,127.1231733
266,GS25강동천일점,서울 강동구 올림픽로88길36 (천호동 313-4),강동구,37.5461109,127.1282673
267,GS25강동트레벨점,"서울 강동구 천호대로1057, 105,6호(천호3동 451-20, 오피스텔트레벨)",강동구,37.5427798,127.1361243
268,GS25강동파크점,"서울 강동구 천호대로1078, 104호(성내2동 164-1, CJ나인파크)",강동구,37.5358191,127.1313166
269,GS25강동펠리스점,"서울 강동구 고덕로140, 상가동1층119-2,120-1 (암사동 413-3, 현대대림아파트)",강동구,37.5544215,127.1407186
270,GS25강북구청점,"서울 강북구 한천로139나길1, 1층(수유3동 192-3)",강북구,37.6390289,127.025204
271,GS25강북동수점,"서울 강북구 한천로148길13, 1층 (수유동 181-49)",강북구,37.6427991,127.0242494
272,GS25강북미아점,"서울 강북구 도봉로20가길40, 1층 코너 (미아동 135-8, 준타워)",강북구,37.620277,127.0295065
273,GS25강북믿음점,서울 강북구 오패산로52길102 (미아동 258-669),강북구,37.6271862,127.0318116
274,GS25강북벽산점,"서울 강북구 삼각산로145, 1층 (수유2동 220-19)",강북구,37.6413065,127.0203904
275,GS25강북수유점,서울 강북구 삼양로497 (수유동 282-1),강북구,37.6474713,127.0143239
276,GS25강북우이점,"서울 강북구 삼양로173길39, 1층(우이동 165-4)",강북구,37.6623946,127.0103037
277,GS25강북최고점,"서울 강북구 덕릉로40길18, 1층 (번동 526-13)",강북구,37.6342861,127.0303588
278,GS25강북한천점,"서울 강북구 한천로132길84, 외 1필지(466-23) (번동 466-22)",강북구,37.6418548,127.0312519
279,GS25강서IT밸리점,"서울 강서구 화곡로68길82, 106호(등촌1동 638-3, 강서IT밸리)",강서구,37.5574625,126.8582739
280,GS25강서LG사이언스2점,"서울 강서구 마곡중앙10로70, E14동 3층 (마곡동 789)",강서구,37.5764888,126.8307466
281,GS25강서LG사이언스점,"서울 강서구 마곡중앙10로70, B1F (마곡동 789)",강서구,37.5745754,126.8329332
282,GS25강서공항점,"서울 강서구 송정로37, 1층(공항동 60-31)",강서구,37.5581301,126.8107459
283,GS25강서까치산점,"서울 강서구 강서로16길22, 1층 일부 (화곡동 341-31)",강서구,37.532821,126.8475222
284,GS25강서드림점,서울 강서구 강서로155(화곡1동 1075-39),강서구,37.5405726,126.8408128
285,GS25강서등마루점,"서울 강서구 화곡로68길148, GS25 강서등마루점 (등촌동 636-60)",강서구,37.55595539999999,126.8615102
286,GS25강서등촌점,서울 강서구 강서로392-11 (등촌동 678-13),강서구,37.5607155,126.8397503
287,GS25강서라마다점,"서울 강서구 마곡중앙로161-11, 130호 (마곡동 760-1, 힐스테이트에코마곡나루역라마다앙코르서울)",강서구,37.5751733,126.8280786
288,GS25강서로우장산점,"서울 강서구 강서로46길47, 1층 일부 (내발산동 706-5, 동산빌딩)",강서구,37.5508505,126.8390545
289,GS25강서메디칼점,"서울 강서구 양천로556, 101호 (등촌1동 630-12, 강서메디칼센터)",강서구,37.557756,126.8606757
290,GS25강서메르디앙점,서울 강서구 공항대로38길106 (내발산동 659-4),강서구,37.5568834,126.8434213
291,GS25강서메트로칸점,"서울 강서구 공항대로45가길11, 1층 101호 (등촌1동 656-52, 강서메트로칸)",강서구,37.5559546,126.8538763
292,GS25강서방화점,서울 강서구 양천로14길16(방화2동 559-5),강서구,37.5724156,126.8100026
293,GS25강서부영점,"서울 강서구 강서로56나길110, 1층 상가동 (등촌동 691-3, 부영아파트)",강서구,37.5635275,126.8434171
294,GS25강서사랑점,"서울 강서구 화곡로58길8, 1층(화곡6동 1117)",강서구,37.5524412,126.844607
295,GS25강서센트레점,서울 강서구 공항대로2길25(공항동 70-223),강서구,37.56026629999999,126.808763
296,GS25강서송정역점,"서울 강서구 공항대로34, 1층 (공항동 42-22, 청보빌딩)",강서구,37.5609659,126.8109442
297,GS25강서송정점,"서울 강서구 남부순환로11길28, 1층 (공항동 1340, 엘지(GS)25)",강서구,37.55466200000001,126.8151232
298,GS25강서안강점,"서울 강서구 마곡중앙로165, 102호 (마곡동 757-5, 안강프라이빗타워)",강서구,37.5764888,126.8307466
299,GS25강서우림점,"서울 강서구 양천로583, 상가 113호(염창동 240-21, 우림블루나인)",강서구,37.556904,126.8642901
300,GS25강서우장점,"서울 강서구 강서로45다길21, 1층 (화곡동 1012)",강서구,37.5468797,126.8350354
301,GS25강서으뜸점,"서울 강서구 강서로7길45, 1층(화곡1동 901-24)",강서구,37.5292289,126.8452559
302,GS25강서자이타워점,"서울 강서구 양천로401, A동 103호 (가양동 1498, 강서한강자이타워)",강서구,37.5653407,126.8480309
303,GS25강서타운점,"서울 강서구 화곡로346, 109호(화곡6동 1111-2, 귀뚜라미홈시스텔)",강서구,37.5544507,126.8520099
304,GS25강서타워점,"서울 영등포구 선유로75 (문래동6가 10, GS강서타워지하1층)",영등포구,37.5207055,126.8892295
305,GS25강서트레벨점,"서울 강서구 양천로57길9-19, 101호 (가양동 1479-8, 동양트레벨스카이오피스텔)",강서구,37.56363320000001,126.8509154
306,GS25강서하늘점,"서울 강서구 양천로10길38, 신마곡벽산블루밍APT 105동 상가 107호 (방화동 537-5)",강서구,37.5749502,126.837039
307,GS25강서한빛점,"서울 강서구 양천로30길32, 1층 남쪽에서 첫번째 점포 (마곡동 326-19)",강서구,37.5718053,126.8225573
308,GS25강서현대점,서울 강서구 방화대로44길32 (방화동 272-41),강서구,37.5718943,126.8177539
309,GS25강서화곡로점,서울 강서구 화곡로18길31 (화곡동 1086-3),강서구,37.5388988,126.8360773
310,GS25강서화곡점,서울 강서구 까치산로193(화곡6동 1114),강서구,37.5544007,126.8541005
311,GS25강서희망점,"서울 강서구 강서로5나길90, 1층(화곡1동 913-11)",강서구,37.5285173,126.8431569
312,GS25강서힐스테이트점,"서울 강서구 강서로242, 상가동 1층 103호 (화곡동 1165-1, 강서힐스테이트)",강서구,37.54722599999999,126.8367128
313,GS25강일14단지점,"서울 강동구 고덕로98길160, 상가동 103호,104호 (상일동 28, 강동리엔파크14단지)",강동구,37.5508533,127.1811169
314,GS25강일4단지점,"서울 강동구 아리수로97길19 (강일동 673, 강일리버파크4단지상가동101,102호)",강동구,37.5679699,127.1768745
315,GS25강일6단지점,"서울 강동구 아리수로93가길77, 상가동 104,105호 (강일동 215, 강동리버스트6단지)",강동구,37.5704515,127.1696026
316,GS25강일9단지점,"서울 강동구 고덕로97길29, 상가 101,102호 (강일동 699, 강일리버파크)",강동구,37.5597477,127.178834
317,GS25강일MK점,"서울 강동구 아리수로93나길50, 108호 (강일동 76-7, 강일MK프라자)",강동구,37.5513406,127.1607313
318,GS25강일뉴타운점,"서울 강동구 아리수로93길33, 105호 (강일동 675, 베스트프라자)",강동구,37.56585949999999,127.1735373
319,GS25강일리버점,"서울 강동구 아리수로94길72, 102호 강일리버파크 8단지상가 (강일동, 강일리버파크8단지아파트)",강동구,37.5615385,127.1769626
320,GS25강일성산점,서울 강동구 아리수로93나길26 (강일동 76-11),강동구,37.5773834,127.1715465
321,GS25강일타운점,"서울 강동구 아리수로97길68, 상가 101호(강일동 668, 강일리버파크2단지)",강동구,37.5693167,127.1762261
322,GS25개나리SK점,"서울 강남구 역삼로315, 107호 (역삼동 716-4)",강남구,37.5005166,127.0502997
323,GS25개봉가늠점,서울 구로구 고척로27길51 (개봉동 118-26),구로구,37.50415539999999,126.8464011
324,GS25개봉당곡점,서울 구로구 개봉로11길7 (개봉3동 348-1),구로구,37.4879535,126.8557224
325,GS25개봉로점,"서울 구로구 개봉로17나길88, 1층 (개봉동 308-18)",구로구,37.4941301,126.8507157
326,GS25개봉빌리지점,"서울 구로구 개봉로1나길36, 1층 (개봉동 368-17)",구로구,37.4847398,126.8525036
327,GS25개봉성심점,"서울 구로구 개봉로17나길33, 1층 일부호 (개봉동 323-33)",구로구,37.4929972,126.8533702
328,GS25개봉역점,"서울 구로구 개봉로20길78, 101호 (개봉2동 407-18, 성동유치원)",구로구,37.4932216,126.8586794
329,GS25개봉으뜸점,"서울 구로구 경인로40길41, 107호 (개봉1동 181-5, 대덕빌딩)",구로구,37.4949883,126.8590223
330,GS25개봉중앙점,서울 구로구 경인로330(개봉3동 353-1),구로구,37.4859037,126.8537616
331,GS25개봉타운점,"서울 구로구 경인로33길25, 101호 (개봉동 139-61)",구로구,37.4989857,126.8517179
332,GS25개봉푸르지오점,"서울 구로구 고척로30길26, 1층 (개봉동 130-22)",구로구,37.5011245,126.8489211
333,GS25개봉한마을점,"서울 구로구 경인로382, 제2상감동 106,107호 (개봉동 476)",구로구,37.4952998,126.8625447
334,GS25개봉현대점,서울 구로구 개봉로16길9(개봉2동 261-11),구로구,37.490083,126.8566906
335,GS25개포경남점,서울 강남구 언주로110(개포1동 649),강남구,37.4843872,127.054267
336,GS25개포늘푸른점,"서울 강남구 영동대로22, 상가 826동 S1B1-0102호 (일원동 611-1)",강남구,37.5121481,127.0609078
337,GS25개포럭키점,서울 강남구 개포로20길12(개포4동 1232),강남구,37.4777564,127.0472118
338,GS25개포미래점,"서울 강남구 개포로244, 1층 (개포동 1212)",강남구,37.4788155,127.0492697
339,GS25개포빌리지점,"서울 강남구 논현로16길6, 1층 일부 (개포동 1227-11)",강남구,37.4760144,127.0470621
340,GS25개포사랑점,"서울 강남구 논현로8길21, 1층 (개포동 1187-6)",강남구,37.4744169,127.0504334
341,GS25개포소망점,"서울 강남구 개포로508, 109호,110호 (개포2동 186-15, 소망빌딩)",강남구,37.4891994,127.0679409
342,GS25개포타운점,서울 강남구 논현로12길13 (개포동 1196-6),강남구,37.4746925,127.0492914
343,GS25개포포레스트점,"서울 강남구 개포로264, 상가 A동 108호 (개포동 656-4, 개포래미안포레스트)",강남구,37.485149,127.0598953
344,GS25개화산역점,"서울 강서구 양천로25 (방화1동 495-18, 서림미술학원)",강서구,37.5727614,126.8065931
345,GS25개화행복점,"서울 강서구 개화동로23길35, 1층 여주슈퍼 (방화동 646-101)",강서구,37.5666191,126.8076555
346,GS25거여삼호점,"서울 송파구 거마로9길23, 104호(거여1동 136-22, 힐하우스빌딩)",송파구,37.4970125,127.1434215
347,GS25거여센타점,"서울 송파구 거마로3길18, 1층 (거여1동 23)",송파구,37.4948038,127.1428858
348,GS25거여우리점,"서울 송파구 오금로64길3, 1층 101호 (거여2동 546)",송파구,37.4924462,127.1475583
349,GS25거여초교점,"서울 송파구 동남로30길8, 1층 (오금동 119)",송파구,37.5042933,127.139736
350,GS25건국점,서울 광진구 화양동 195-17,광진구,37.5456225,127.0762388
351,GS25건대기숙사점,"서울 광진구 능동로120 (화양동 1, 건국대학교기숙사1층상가내109호)",광진구,37.5419717,127.0767285
352,GS25건대동문회관점,"서울 광진구 아차산로36길5, 1층 3호 (자양동 227-336, 건국대학교동문회관)",광진구,37.5383015,127.0746261
353,GS25건대몰점,"서울 광진구 아차산로30길26, 104호 (자양동 9-4, 몰오브케이)",광진구,37.5396907,127.066938
354,GS25건대수정점,"서울 광진구 능동로13길15, 1층(화양동 11-1)",광진구,37.5427495,127.0708923
355,GS25건대제일점,서울 광진구 아차산로25길7(화양동 49-1),광진구,37.5418205,127.0665529
356,GS25건대호수점,"서울 광진구 아차산로39길16, 1층(자양1동 225-90)",광진구,37.5387086,127.0767925
357,GS25경기대서울점,"서울 서대문구 경기대로9길50, 지하1층(충정로3가 1-35)",서대문구,37.5641154,126.9614048
358,GS25경리단길점,"서울 용산구 회나무로17, 1층 101호 (이태원동 277-6)",용산구,37.5391066,126.9887537
359,GS25경의선책거리점,"서울 마포구 신촌로4길18, 1층 코너면 (동교동 176-1)",마포구,37.5573735,126.9287818
360,GS25경희궁자이점,"서울 종로구 송월길155, 상가동 1층 4123호 (교북동 12-1, 경희궁자이)",종로구,37.5716126,126.9613687
361,GS25경희대학사점,"서울 동대문구 경희대로26, 경희대학교 서울캠퍼스 공공기숙사 지상1층 (회기동 1-5)",동대문구,37.596277,127.0526565
362,GS25경희원룸점,"서울 동대문구 이문로3길66, 외 1필지 1층 (회기동 103-220)",동대문구,37.5908978,127.0515473
363,GS25경희의대점,"서울 동대문구 회기로23가길21, 1층(회기동 3-4)",동대문구,37.5922426,127.0541833
364,GS25경희점,서울 동대문구 경희대로3길2(회기동 36-26),동대문구,37.5927734,127.0522924
365,GS25계동중앙점,"서울 종로구 계동길61, 1층 (계동 86)",종로구,37.5800011,126.9865456
366,GS25고대개운점,서울 성북구 개운사길56(안암동5가 15-19),성북구,37.5888034,127.0293322
367,GS25고대성북천점,"서울 성북구 보문로22길28, 1층(안암동3가 86)",성북구,37.5837539,127.0220123
368,GS25고대으뜸점,서울 동대문구 안암로22길2 (제기동 137-66),동대문구,37.5881615,127.0348933
369,GS25고대종암점,"서울 성북구 북악산로27길14 (종암동 31-46, 돌채빌딩)",성북구,37.592116,127.03438
370,GS25고대중앙광장점,"서울 성북구 안암로145, 고려대학교 중앙광장 109C호 (안암동5가 1-2)",성북구,37.5885098,127.0337661
371,GS25고대타운점,서울 성북구 고려대로24가길7 (안암동5가 103-61),성북구,37.5852979,127.0298204
372,GS25고덕그라시움점,"서울 강동구 고덕로385, 상가 127, 128호 (고덕동 212, 고덕그라시움아파트)",강동구,37.5577057,127.1668534
373,GS25고덕리엔점,서울 강동구 상일로152 (강일동 707),강동구,37.5609818,127.171693
374,GS25고덕시티점,서울 강동구 명일동47-2번지 갑을명가오피스텔,강동구,37.5538846,127.154581
375,GS25고덕아르테온점,"서울 강동구 고덕로380, 근린생활시설 2동 101-2호 (상일동 121)",강동구,37.5551975,127.1686842
376,GS25고덕점,서울 강동구 동남로81길44(고덕1동 503),강동구,37.5599822,127.154494
377,GS25고덕파크점,서울 강동구 동남로85길20 (고덕동 528-5),강동구,37.5614019,127.1555725
378,GS25고려대역점,"서울 동대문구 종암로2, 1층(제기동 1149-10)",동대문구,37.5904621,127.0366855
379,GS25고척공원점,"서울 구로구 고척로185 (고척2동 164-40, 우성빌딩1층상가전부)",구로구,37.5044878,126.8539862
380,GS25고척사랑점,"서울 구로구 경인로47다길8, 1층 101호 (고척1동 46-21)",구로구,37.5033599,126.8641732
381,GS25고척세곡점,서울 구로구 고척로33길60 (고척2동 241-129),구로구,37.5052065,126.8480204
382,GS25고척센츄리점,"서울 구로구 중앙로12길12, 상가 101호(고척1동 320, 센츄리)",구로구,37.5044635,126.8621942
383,GS25고척으뜸점,"서울 구로구 고척로228-6, 1층 (고척동 195-13, 종만빌딩)",구로구,37.5057472,126.8582376
384,GS25고척점,서울 구로구 경인로47길10(고척1동 62-98),구로구,37.5001115,126.8671606
385,GS25고척중앙점,서울 구로구 고척로33길106 (고척동 250-109),구로구,37.5071307,126.8470543
386,GS25고척타운점,서울 구로구 고척로39길29 (고척동 261-41),구로구,37.5046195,126.8506526
387,GS25고척학산점,서울 구로구 경인로35길109(고척2동 271-44),구로구,37.5012536,126.852087
388,GS25골든타워점,서울 구로구 경인로224 (오류동 59-20),구로구,37.4966019,126.8457517
389,GS25곰달래로점,"서울 강서구 곰달래로31길16, 1층 (화곡동 872-24)",강서구,37.531607,126.8514692
390,GS25공덕대우점,"서울 마포구 백범로199, 102호 -A (신공덕동 167, 대우매트로디오빌)",마포구,37.5434128,126.9528962
391,GS25공덕블레스점,"서울 마포구 만리재로94, 1층 (공덕동 108-65)",마포구,37.548547,126.9596371
392,GS25공덕블루마리점,"서울 마포구 만리재로63, 1층 101호 (신공덕동 3-3, 블루마리오피스텔)",마포구,37.5468525,126.9572208
393,GS25공덕삼성점,"서울 마포구 마포대로115-8, 108, 109호 (공덕동 371, 공덕삼성아파트)",마포구,37.54602010000001,126.9516387
394,GS25공덕제니스점,"서울 마포구 마포대로7길23, 지층 (공덕동 373-9)",마포구,37.5472246,126.9518255
395,GS25공덕태영점,"서울 마포구 독막로320, 109호,110호 (도화동 560)",마포구,37.5429247,126.9478595
396,GS25공덕파크자이점,서울 마포구 공덕동446-34번지 공덕파크자이 상가102동 16호,마포구,37.5446118,126.9483043
397,GS25공릉공원점,"서울 노원구 동일로186길70, 1층 (공릉동 506-1)",노원구,37.6252564,127.0767008
398,GS25공릉대성점,"서울 노원구 동일로190길41, 1층 (공릉동 393-4)",노원구,37.6260049,127.0754035
399,GS25공릉라이프점,"서울 노원구 섬밭로125, 상가동 104호,108호 (공릉동 715)",노원구,37.6272665,127.0685419
400,GS25공릉문화점,"서울 노원구 동일로179길23, 1층 (공릉동 575-1)",노원구,37.6217432,127.0727829
401,GS25공릉삼익점,"서울 노원구 동일로1116, 1층 상가동 (공릉동 714)",노원구,37.6298477,127.0719356
402,GS25공릉센타점,"서울 노원구 공릉로46길6, 107호 (공릉동 421-19, 현대프라자)",노원구,37.6269138,127.0796292
403,GS25공릉에이스점,서울 노원구 동일로174길9-60 (공릉동 621-1),노원구,37.6193903,127.0765861
404,GS25공릉역점,서울 노원구 동일로192길15(공릉1동 386-3),노원구,37.6261316,127.0738544
405,GS25공릉우방점,"서울 노원구 노원로58 (공릉2동 108, 우방아파트상가제1층 102호)",노원구,37.6266384,127.0872092
406,GS25공릉원룸점,서울 노원구 공릉로126 (공릉동 747),노원구,37.6210119,127.0799557
407,GS25공릉으뜸점,"서울 노원구 동일로178길29-4, 1층 102호 (공릉동 585-20)",노원구,37.6215993,127.0763711
408,GS25공릉제일점,서울 노원구 동일로193길21 (공릉1동 383-1),노원구,37.6257226,127.0714567
409,GS25공릉중앙점,서울 노원구 동일로173가길28(공릉1동 598-17),노원구,37.6196026,127.0734959
410,GS25공릉청솔점,"서울 노원구 노원로1가길10, 상가 101,102호 (공릉2동 91, 청솔아파트)",노원구,37.6232629,127.086018
411,GS25공릉타운점,"서울 노원구 공릉로43길19, 1층 (공릉동 408-89)",노원구,37.6258949,127.078382
412,GS25공릉태강점,서울 노원구 공릉로34길38 (공릉동 81),노원구,37.6233407,127.0830434
413,GS25공릉퍼스트점,서울 노원구 섬밭로6 (공릉동 684-11),노원구,37.6173212,127.0729273
414,GS25공릉화랑점,"서울 노원구 화랑로51길17, 상가 101호 (공릉동 111, 화랑타운아파트)",노원구,37.6234019,127.0884994
415,GS25공릉효성점,"서울 노원구 화랑로556, 상가동 1층 105호 (공릉동 742, 효성아파트)",노원구,37.6211531,127.0882845
416,GS25공항로점,서울 양천구 공항대로558(목3동 603-5),양천구,37.5492426,126.867394
417,GS25공항로캐슬점,"서울 강서구 공항대로382, 상가 107호(화곡동 1145, 우장산롯데캐슬)",강서구,37.5554767,126.8484772
418,GS25공항소담점,"서울 강서구 방화대로6라길26, 1층 (공항동 1349)",강서구,37.55610679999999,126.8184991
419,GS25공항제일점,"서울 강서구 송정로4길46, 1층 (공항동 654)",강서구,37.5583199,126.8134898
420,GS25공항하늘점,서울 강서구 방화대로21나길34 (공항동 18-9),강서구,37.5638004,126.8123684
421,GS25공항행복점,서울 강서구 방화대로7길28(공항동 669-5),강서구,37.5562382,126.8146207
422,GS25공항화물청사점,"서울 강서구 하늘길233, 1층 (공항동 1373-5, 골프포트)",강서구,37.555525,126.8067017
423,GS25관악KT점,서울 관악구 조원중앙로7 (신림동 1668-12),관악구,37.4804736,126.9042505
424,GS25관악고시촌점,"서울 관악구 호암로24길74, 1층 (신림동 1538, 유림재고시연구원)",관악구,37.4691368,126.9372123
425,GS25관악까치점,서울 관악구 행운길21 (봉천동 1675-1),관악구,37.4800557,126.959182
426,GS25관악녹두점,"서울 관악구 호암로26길9, 1층 (신림동 1514-7, 대관)",관악구,37.47082839999999,126.9342569
427,GS25관악당곡점,서울 관악구 남부순환로191길8(은천동 961-13),관악구,37.4855528,126.9344006
428,GS25관악대성점,서울 관악구 관악로12길17(낙성대동 1598-35),관악구,37.4781382,126.9533656
429,GS25관악대원점,"서울 관악구 인헌16길47, 지하1층 (봉천동 180-422, 새진아파트)",관악구,37.4692186,126.965524
430,GS25관악대학점,서울 관악구 신림로7나길3(대학동 235-15),관악구,37.4697818,126.9413124
431,GS25관악두산점,서울 관악구 봉천로33나길20 (봉천동 904-4),관악구,37.4855,126.9430672
432,GS25관악미림점,서울 관악구 호암로18가길1 (신림동 306-6),관악구,37.4653913,126.9324395
433,GS25관악미성점,"서울 관악구 남부순환로144길24, 101호 (신림동 1488-35)",관악구,37.4802078,126.9126415
434,GS25관악배수지점,"서울 관악구 난곡로26길89, 지하1층 (신림동 646-273)",관악구,37.4692699,126.9244382
435,GS25관악법원단지점,"서울 관악구 법원단지21길2, 1층 B02호 (난곡동 610-140)",관악구,37.47503160000001,126.9228102
436,GS25관악보라매점,"서울 관악구 보라매로3길17, 101~102호(보라매동 702-108)",관악구,37.4912612,126.9261675
437,GS25관악봉림점,"서울 관악구 장군봉7길2, B동 01호 (봉천동 1533-1)",관악구,37.4805422,126.9394228
438,GS25관악봉천점,서울 관악구 관악로17길25(청룡동 876-1),관악구,37.4806588,126.9502494
439,GS25관악블루점,"서울 관악구 관악로208-40, 1층 (봉천동 62-19)",관악구,37.4830726,126.954821
440,GS25관악서림점,"서울 관악구 신림로22길14, 1층(서림동 110-7)",관악구,37.4719017,126.9355655
441,GS25관악서원점,서울 관악구 남부순환로1626-1(서원동 11-18),관악구,37.4841617,126.9313233
442,GS25관악성진점,"서울 관악구 조원중앙로1길54, 1층 (신림동 1664-14)",관악구,37.4801759,126.9016001
443,GS25관악세봉점,"서울 관악구 관악로125, 상가 101호 (청룡동 1591-2, 삼우아파트)",관악구,37.4762143,126.9520244
444,GS25관악스마일점,서울 관악구 난곡로34나길17 (신림동 1678-20),관악구,37.4727362,126.9214797
445,GS25관악스카이점,"서울 관악구 서원6길1, 지층 (신림동 409-33)",관악구,37.47661470000001,126.9324336
446,GS25관악스타힐스점,"서울 관악구 청림3길10, 1층 1-5호 (봉천동 10-4, 서희스타힐스아파트)",관악구,37.4901886,126.9588927
447,GS25관악승리점,"서울 관악구 봉천로281, 1층 (봉천동 968-36)",관악구,37.487688,126.9324762
448,GS25관악신림로점,"서울 관악구 신림로66길25, 1층 (신림동 1420-30)",관악구,37.485602,126.9310688
449,GS25관악쑥고개점,"서울 관악구 쑥고개로129, 1층 (청룡동 1568-8)",관악구,37.4789843,126.950923
450,GS25관악아미움점,"서울 관악구 장군봉1길16, 상가동 101호 (봉천동 1522-30, 청룡동금강아미움아파트)",관악구,37.4818133,126.9408985
451,GS25관악영락점,"서울 관악구 청룡8길28, 1층 (봉천동 919-15)",관악구,37.4800631,126.9444824
452,GS25관악원당점,서울 관악구 행운1길81 (봉천동 1668-18),관악구,37.4821663,126.9560525
453,GS25관악원앙점,"서울 관악구 남부순환로218길46, 지층 B1호(청룡동 878-1)",관악구,37.479344,126.9500349
454,GS25관악은천로점,서울 관악구 은천로24(은천동 956-2),관악구,37.4859897,126.9378849
455,GS25관악은혜점,서울 관악구 신림로36길22 (신림동 94-95),관악구,37.4758325,126.9386211
456,GS25관악이편한점,"서울 관악구 참숯5길12, 1층 (신림동 95-53, 영어린이집)",관악구,37.4770268,126.9403793
457,GS25관악인헌점,"서울 관악구 낙성대역길31, 1층(낙성대동 207-21)",관악구,37.4760811,126.9615345
458,GS25관악장군점,"서울 관악구 장군봉2길45, 1층(청룡동 1520-1)",관악구,37.4831754,126.937849
459,GS25관악장원(빨래방)점,"서울 관악구 대학길84, 1층,지층 (대학동 253-3)",관악구,37.4669576,126.9374647
460,GS25관악장원점,"서울 관악구 대학길84, 1층,지층 (대학동 253-3)",관악구,37.4669576,126.9374647
461,GS25관악점,서울 관악구 남부순환로1599 (신림동 1433-60),관악구,37.4842556,126.928156
462,GS25관악탑점,"서울 관악구 남현길79, 1층 (남현동 1078-2)",관악구,37.4732411,126.9757904
463,GS25관악푸르지오점,"서울 관악구 관악로30길17, 1층(청림동 16-6)",관악구,37.48651460000001,126.9589952
464,GS25관악플러스점,서울 관악구 봉천로442-1 (봉천동 884-5),관악구,37.4821555,126.9489452
465,GS25관악한빛점,"서울 관악구 봉천로455, 외1필지(중앙동 873-43)",관악구,37.4825808,126.9505674
466,GS25관악한일점,"서울 관악구 승방2길2(남현동 602-11, 한일빌딩)",관악구,37.4739242,126.9813264
467,GS25관악현대점,"서울 관악구 청림5길87, 2층 (청림동 1-783)",관악구,37.4917093,126.9595304
468,GS25관악휴먼시아점,"서울 관악구 난곡로53, 304호(난향동 1735-3, 휴먼시아)",관악구,37.4601377,126.9192994
469,GS25광나루점,서울 광진구 아차산로78길182(광장동 323-2),광진구,37.5475681,127.1079062
470,GS25광나루현대점,서울 광진구 아차산로76길32 (광장동 322-3),광진구,37.5473456,127.1079125
471,GS25광운로드점,서울 노원구 석계로65 (월계동 429-9),노원구,37.6204804,127.0626897
472,GS25광운문화관점,"서울 노원구 광운로21, 문화관(월계1동 466, 광운대학교)",노원구,37.619745,127.0575777
473,GS25광운사랑점,서울 노원구 광운로17-11(월계1동 496-45),노원구,37.61947840000001,127.0572571
474,GS25광운삼거리점,"서울 노원구 광운로44, 1층 3호 (월계동 406, 준빌딩)",노원구,37.6213144,127.0594711
475,GS25광운월계점,서울 노원구 광운로2나길45 (월계동 442-2),노원구,37.6177496,127.0602183
476,GS25광운타운점,"서울 노원구 광운로79, 1층 (월계동 375-2)",노원구,37.6243307,127.0598795
477,GS25광운행운점,서울 노원구 광운로5 (월계동 469-28),노원구,37.618413,127.0572025
478,GS25광장삼성점,"서울 광진구 아차산로546, 상가 1층 103호 (광장동 453-1, 삼성)",광진구,37.5424578,127.1019051
479,GS25광장학산점,"서울 광진구 아차산로78길72, 1층 101-1호 (광장동 110, 학산코스모스텔)",광진구,37.5512984,127.1104104
480,GS25광장현대점,"서울 광진구 아차산로66길31, 1층 (광장동 569)",광진구,37.5415686,127.0984973
481,GS25광진구의,서울 광진구 자양로18길65 (구의동 242-82),광진구,37.5383339,127.0871213
482,GS25광진구의역점,"서울 광진구 아차산로417, 102호 (구의동 243-13)",광진구,37.5380143,127.0889096
483,GS25광진군자역점,"서울 광진구 천호대로562, 1층 (능동 220-4, 쥬얼테크)",광진구,37.5564436,127.0803393
484,GS25광진능동,"서울 광진구 능동로36길168, 1층 (능동 254-6)",광진구,37.5529547,127.0876447
485,GS25광진대성점,"서울 광진구 동일로66길9, 1층 (중곡1동 252-23)",광진구,37.5617108,127.0757957
486,GS25광진더클래식점,"서울 광진구 능동로90, 더클래식500 지하1층 CB102호 (자양동 227-342)",광진구,37.5384449,127.0710527
487,GS25광진동양점,"서울 광진구 긴고랑로7길105, 1층 (중곡동 189-1, 동양슈퍼)",광진구,37.5678467,127.0814307
488,GS25광진마루점,서울 광진구 중곡동74-120번지 지하1층,광진구,37.55969049999999,127.0947351
489,GS25광진미소점,"서울 광진구 광나루로20길38, 1층 (화양동 111-40)",광진구,37.5453643,127.0739809
490,GS25광진시티점,"서울 광진구 자양로5길13-1, 1층 (자양2동 678-2, 연수빌딩)",광진구,37.5313915,127.0849351
491,GS25광진아차산역,"서울 광진구 천호대로666, 그랜드파크오피스텔 B105-1호 (구의동 76-1)",광진구,37.551265,127.0892451
492,GS25광진아차산점,"서울 광진구 자양로50길18, 1층 (구의동 33-59)",광진구,37.5519241,127.0932774
493,GS25광진용마점,서울 광진구 천호대로125길72 (중곡동 123-20),광진구,37.5575633,127.087267
494,GS25광진우체국점,"서울 광진구 강변역로2, 1층 (구의동 587)",광진구,37.5376071,127.0904342
495,GS25광진자양로점,서울 광진구 자양로9길70 (자양동 633-14),광진구,37.5322226,127.0811448
496,GS25광진제일점,서울 광진구 능동로354 (중곡2동 41-38),광진구,37.5609615,127.0818412
497,GS25광진진넥스점,"서울 광진구 광나루로604, 104호 (구의동 201-8, 진넥스베르디엠)",광진구,37.5414773,127.0949192
498,GS25광진캠퍼스점,"서울 광진구 동일로178, 105호 (화양동 21-20, 캠퍼스시티)",광진구,37.5478283,127.0677579
499,GS25광진타운빌점,"서울 광진구 답십리로86길16, 1층 (중곡동 549-6)",광진구,37.5703428,127.084358
500,GS25광진타운점,서울 광진구 동일로62길34 (중곡동 636-9),광진구,37.5592501,127.0759189
501,GS25광진타워점,서울 광진구 아차산로355 (자양동 779),광진구,37.5375333,127.082184
502,GS25광진파크점,서울 광진구 동일로30길28(화양동 19-38),광진구,37.5474493,127.0688343
503,GS25광진팰리스점,"서울 광진구 뚝섬로34길67, B동 103호 (자양3동 854, 광진트라팰리스)",광진구,37.53184359999999,127.0679682
504,GS25광진현대점,"서울 광진구 자양번영로3길54, 1층 (자양동 469)",광진구,37.5324236,127.0722797
505,GS25광흥창역점,"서울 마포구 서강로55, 103호 (창전동 444, 서강쌍용예가)",마포구,37.5482267,126.9297462
506,GS25광희문점,"서울 중구 청구로116, 1층(신당동 304-499)",중구,37.5621071,127.0105181
507,GS25광희빌딩점,"서울 중구 마른내로156, 1층 (광희동1가 237, 광희빌딩 별관)",중구,37.5642644,127.005714
508,GS25교직원공제회점,"서울 영등포구 여의나루로50, 지하1층 5호 (여의도동 35-3, 한국교직원공제회관)",영등포구,37.5218511,126.9258265
509,GS25구로W타워점,"서울 구로구 경인로53길90, 103호(구로2동 615-3, STX-W타워)",구로구,37.5043018,126.8751353
510,GS25구로가리봉점,서울 구로구 우마길1 (가리봉동 122-21),구로구,37.4825185,126.8875206
511,GS25구로개봉점,서울 구로구 고척로19길16(개봉1동 62-19),구로구,37.5019437,126.8453347
512,GS25구로개웅점,서울 구로구 개봉로3가길23 (개봉동 367-30),구로구,37.4851188,126.854143
513,GS25구로거성점,서울 구로구 개봉로15길60 (개봉동 339-10),구로구,37.4899609,126.8526431
514,GS25구로경인점,"서울 구로구 경인로35길38, 1층 (개봉동 149-20)",구로구,37.4988748,126.8543162
515,GS25구로계영점,서울 구로구 구로동로20길32 (구로동 739-1),구로구,37.488374,126.8862465
516,GS25구로대박점,서울 구로구 개봉로3가길85 (개봉동 316-10),구로구,37.4826535,126.8525604
517,GS25구로동양점,"서울 구로구 시흥대로163길25, 1층 (구로동 1130-14, 대진월드Ⅰ)",구로구,37.4816894,126.898472
518,GS25구로디지탈점,"서울 구로구 디지털로33길12, 112호(구로3동 184-1, 우림e-BIZ2차)",구로구,37.486541,126.8960952
519,GS25구로래미안점,"서울 구로구 디지털로31길86, 상가동 105호 (구로동 256-1, 삼성래미안아파트)",구로구,37.4876957,126.8918232
520,GS25구로럭키점,"서울 구로구 도림로107, 상가 102,103호 (구로동 1257)",구로구,37.5050273,126.8975225
521,GS25구로메트로점,"서울 구로구 디지털로242, 107호 (구로동 851, 한화비즈메트로1차)",구로구,37.4808224,126.8926653
522,GS25구로문성점,"서울 구로구 디지털로32가길72, 101호 (구로3동 1129-18)",구로구,37.4805275,126.8969729
523,GS25구로미래점,"서울 구로구 경인로661, 110-2호 (신도림동)",구로구,37.5083178,126.8866469
524,GS25구로미성점,"서울 구로구 구로중앙로228, 101호(신도림동 399, 기임빌딩)",구로구,37.5061286,126.8765952
525,GS25구로미주점,"서울 구로구 가마산로27길56, 102동 101호 (구로동 107-8, 미주프라자)",구로구,37.4992451,126.8906517
526,GS25구로벚꽃점,서울 구로구 벚꽃로70길1 (구로동 406-6),구로구,37.4926475,126.8803197
527,GS25구로벤처점,"서울 구로구 디지털로285, 104호 (구로3동 212-1, 에이스트윈타워1)",구로구,37.4844473,126.8944933
528,GS25구로빌란트점,"서울 구로구 디지털로32길30, 102호 (구로동 222-7)",구로구,37.4833471,126.8965154
529,GS25구로사거리점,"서울 구로구 경서로55, 1층 일부호 (고척동 136-6)",구로구,37.50197,126.8588889
530,GS25구로사랑점,"서울 구로구 경인로661, 154호(신도림동 337, 대우미래사랑시티)",구로구,37.5093957,126.8877258
531,GS25구로삼성점,"서울 구로구 디지털로33길27, 103호(구로3동 197-5, 삼성IT밸리)",구로구,37.4860113,126.8946614
532,GS25구로새싹점,서울 구로구 공원로7길18 (구로동 547-11),구로구,37.5019225,126.887917
533,GS25구로성보점,서울 구로구 가마산로229 (구로동 437-1),구로구,37.4942102,126.8863532
534,GS25구로성우점,"서울 구로구 경인로20나길30, 104호(오류1동 46-1, 이좋은집)",구로구,37.4949392,126.8420705
535,GS25구로솔보점,서울 구로구 서해안로2102 (항동 119-6),구로구,37.4800626,126.8234693
536,GS25구로신화점,서울 구로구 구로중앙로28길35-2 (구로동 112-41),구로구,37.49985,126.8877181
537,GS25구로싸이언점,"서울 구로구 디지털로34길55, 116호(구로3동 811, 코오롱싸이언스밸리2차)",구로구,37.4842333,126.8992725
538,GS25구로아울렛점,"서울 구로구 경인로43길18, 1층 (고척1동 85-20)",구로구,37.4973918,126.8620618
539,GS25구로연지점,"서울 구로구 오리로1102-10, 상가동 1층 101호 (천왕동 7-1, 천왕연지타운2단지아파트)",구로구,37.4828739,126.8442941
540,GS25구로영서점,"서울 구로구 도림천로12길3, 2층 (구로동 154-7)",구로구,37.4900865,126.8955071
541,GS25구로영흥점,서울 구로구 새말로30(구로5동 571-19),구로구,37.5023985,126.8843123
542,GS25구로오류점,"서울 구로구 오류로54 (오류2동 168-7, 성민빌딩)",구로구,37.4895171,126.8400474
543,GS25구로용마점,"서울 구로구 오리로1316, 1층 (궁동 279)",구로구,37.4987742,126.8293427
544,GS25구로유앤아이점,"서울 구로구 가마산로87, 제상가동 제 1층 104호 (구로동 1281)",구로구,37.4862802,126.8759913
545,GS25구로으뜸점,서울 구로구 오리로13길64 (오류동 245-1),구로구,37.4883002,126.8306753
546,GS25구로은혜점,서울 구로구 중앙로15길87 (고척동 220-16),구로구,37.5068624,126.8548592
547,GS25구로이편한점,"서울 구로구 신도림로16, 101호(신도림동 642, 대림2차)",구로구,37.5107088,126.9072529
548,GS25구로제일점,"서울 구로구 구일로4길33, 상가동 103호(구로1동 685-215)",구로구,37.4919882,126.875787
549,GS25구로중앙로점,서울 구로구 중앙로3길12 (고척동 76-22),구로구,37.5001925,126.8629331
550,GS25구로중앙유통점,"서울 구로구 경인로53길22, 106호(구로2동 608-2)",구로구,37.50223099999999,126.8766265
551,GS25구로지벨리몰점,서울 구로구 디지털로300 (구로3동 188-25),구로구,37.4847961,126.8966297
552,GS25구로지타워몰점,"서울 구로구 디지털로26길38, 지하1층 B101호 (구로동 832)",구로구,37.4814128,126.8960861
553,GS25구로진성점,"서울 구로구 도림천로336, 1층 (구로동 73-10, 진성빌딩)",구로구,37.4949865,126.8937298
554,GS25구로천왕점,"서울 구로구 천왕로56, 상가 106,107호 (천왕동 278, 천왕이펜하우스3단지)",구로구,37.4803813,126.8415075
555,GS25구로코업점,"서울 구로구 경인로20가길19, 1층 101호 (오류동 55-42, 코업 시티 호텔 스테이코)",구로구,37.4889261,126.8253725
556,GS25구로타운점,"서울 구로구 가마산로23길10, 1층 現공실(구로5동 103)",구로구,37.4960268,126.8892337
557,GS25구로타워점,"서울 구로구 디지털로273, 104호 (구로동 212-30, 에이스트윈타워2차)",구로구,37.4839163,126.8940805
558,GS25구로푸르뫼점,서울 구로구 고척로85 (개봉동 60-101),구로구,37.5009294,126.8436121
559,GS25구로하나점,"서울 구로구 오류로8가길6, 103,104호 (오류동 156-1)",구로구,37.4911561,126.8424552
560,GS25구로하우비점,"서울 구로구 구로중앙로28길73, 101호 (구로동 110-5, 구로하우비)",구로구,37.5007554,126.8893254
561,GS25구로하이앤드점,"서울 구로구 디지털로26길61 (구로3동 222-14, 에이스하이엔드타워2차)",구로구,37.48076,126.89565
562,GS25구로한일점,"서울 구로구 중앙로15길151, 101동 105호(고척2동 337, 한일유앤아이)",구로구,37.5079098,126.8512827
563,GS25구로행복점,"서울 구로구 연동로13길56, 1층 일부 (항동 16-3)",구로구,37.4853741,126.8194919
564,GS25구로허브점,"서울 구로구 구일로10길27, B동 105호(구로1동 650-4, SK허브수지)",구로구,37.4958336,126.87265
565,GS25구로혁신점,"서울 구로구 도림로69, 1층 (구로4동 313-119)",구로구,37.4896635,126.8908488
566,GS25구로현대점,"서울 구로구 신도림로19길16, 1층 現현대마트(신도림동 641)",구로구,37.5119989,126.8840088
567,GS25구로화원점,서울 구로구 구로동로217(구로2동 486-53),구로구,37.4979088,126.8823254
568,GS25구립강서점,"서울 강서구 허준로95-9, 1층 (가양동 1472)",강서구,37.5673188,126.8517055
569,GS25구산부일점,"서울 은평구 갈현로15길24, 1층 (구산동 176)",은평구,37.6079312,126.9082467
570,GS25구산예일점,"서울 은평구 서오릉로11길14, 1층 (구산동 6-17)",은평구,37.611198,126.9145597
571,GS25구산점,서울 은평구 서오릉로178(갈현2동 489-23),은평구,37.613127,126.9138657
572,GS25구산중앙점,"서울 은평구 연서로11길20-5, 1층 (구산동 18-20)",은평구,37.6088448,126.9132212
573,GS25구의강변점,서울 광진구 구의강변로64(구의3동 589-10),광진구,37.5361506,127.093086
574,GS25구의동국점,서울 광진구 광나루로36길28 (구의1동 235-11),광진구,37.5436798,127.086307
575,GS25구의무학점,"서울 광진구 아차산로51길86, 1층 (구의1동 248-93)",광진구,37.5406627,127.0853197
576,GS25구의미가로점,서울 광진구 아차산로51길41 (구의동 252-4),광진구,37.5388719,127.0848086
577,GS25구의바우점,서울 광진구 아차산로65길78 (구의동 204-27),광진구,37.5427675,127.0913809
578,GS25구의법원점,"서울 광진구 아차산로395, 106호(구의1동 246-3, 민도빌딩)",광진구,37.5375242,127.0863561
579,GS25구의새한점,서울 광진구 아차산로57길41(구의1동 241-96),광진구,37.5403663,127.0884747
580,GS25구의성진점,"서울 광진구 구의강변로45, 103호(구의3동 593-15, 성진프라자빌딩)",광진구,37.5348617,127.0912641
581,GS25구의센터점,"서울 광진구 자양로51길22, 1층 (구의동 28-40, 성보빌딩)",광진구,37.5539829,127.0924535
582,GS25구의스타일점,서울 광진구 광나루로52길98 (구의동 220-52),광진구,37.539178,127.0905984
583,GS25구의스타점,서울 광진구 광나루로30나길14 (구의동 643-1),광진구,37.543496,127.082361
584,GS25구의창원점,서울 광진구 자양로30길79 (구의동 226-18),광진구,37.5429974,127.0892993
585,GS25구의타운점,"서울 광진구 구의강변로96, 상가 107,8호(구의3동 610, 현대)",광진구,37.5384531,127.0946536
586,GS25구의행복점,"서울 광진구 광나루로532, 1층 1호 (구의1동 230-19, 우석빌딩)",광진구,37.5446635,127.0884915
587,GS25구일우성점,"서울 구로구 구일로2길60, 201동 125호 /126호/127호/128호/129호 (구로동 1259, 구일우성아파트)",구로구,37.4901992,126.8768791
588,GS25구파발클라스점,"서울 은평구 진관2로15-46, 103호 (진관동 70, 메트로프라자)",은평구,37.6386256,126.9190787
589,GS25국민대점,"서울 성북구 정릉로10길22, 1층(정릉3동 654-34)",성북구,37.6077082,127.0003168
590,GS25국민사랑점,서울 성북구 정릉로9길40(정릉3동 852-11),성북구,37.6103973,126.9992048
591,GS25국일관점,"서울 종로구 수표로96, 1~2호(관수동 20, 국일관드림팰리스빌딩)",종로구,37.5697291,126.9897183
592,GS25군자능동점,서울 광진구 능동로275 (군자동 1-11),광진구,37.5545075,127.0777068
593,GS25군자동일로점,"서울 광진구 동일로52길3, 1층 (군자동 117-35)",광진구,37.5547681,127.0716429
594,GS25군자본점,"서울 광진구 동일로34길17, 1층 (군자동 351-6)",광진구,37.549923,127.0695584
595,GS25군자역,"서울 광진구 능동로317, 1층 (중곡동 648-15)",광진구,37.5579877,127.0797137
596,GS25군자원룸점,"서울 광진구 군자로10길26, 1층 (군자동 370)",광진구,37.5489132,127.0721161
597,GS25군자중앙점,서울 광진구 능동로35길41(군자동 471-1),광진구,37.5572723,127.0767197
598,GS25군자행복점,"서울 광진구 천호대로573, 1층(중곡2동 341-7)",광진구,37.5565227,127.0818199
599,GS25군자행운점,서울 광진구 군자로141(군자동 48-24),광진구,37.55427400000001,127.0748123
600,GS25궁동상지점,"서울 구로구 부일로15길29, 1층 (궁동 208-16, 비치빌딩)",구로구,37.4941118,126.8330387
601,GS25궁동연세점,서울 구로구 부일로19길16 (궁동 197-25),구로구,37.4940808,126.8366578
602,GS25궁동우신점,"서울 구로구 오리로1265, 상가동 1층110호, 111호 (궁동 213-21, 우신빌라)",구로구,37.4940852,126.8304381
603,GS25궁동중앙점,"서울 구로구 부일로11길85, 1층 (궁동 169-2)",구로구,37.4967351,126.8299818
604,GS25그라시움샘터점,"서울 강동구 고덕동217 고덕그라시움 3상가 107,108호 일부",강동구,37.5579966,127.1626204
605,GS25그랑서울본점,"서울 종로구 종로33, 102호 (청진동 70, 그랑서울)",종로구,37.5706922,126.9815134
606,GS25그랜드신협점,서울 강남구 테헤란로521 (삼성동 159-8),강남구,37.5091322,127.0608511
607,GS25금천가온점,서울 금천구 독산로35길13 (시흥동 848),금천구,37.4579165,126.9045029
608,GS25금천구청점,"서울 금천구 시흥대로73길11, 상가동 1층 5,6,7호 (시흥동 109-1)",금천구,37.456119,126.8983126
609,GS25금천나래점,"서울 금천구 독산로41길69, 1층 (시흥동 854)",금천구,37.4578215,126.902333
610,GS25금천능선점,"서울 금천구 독산로159, 1층 (시흥동 863-51, 한성빌딩)",금천구,37.46156089999999,126.9043751
611,GS25금천다온점,"서울 금천구 독산로6가길18, 1층 (시흥동 923)",금천구,37.4488257,126.905951
612,GS25금천독산로점,"서울 금천구 독산로24길15, 1층 (시흥4동 818-6)",금천구,37.4551973,126.9067635
613,GS25금천르네상스점,"서울 금천구 시흥대로152길11-43, 208동 1호(독산3동 953, 삼부르네상스)",금천구,37.4784551,126.9005501
614,GS25금천문일점,"서울 금천구 시흥대로51길23, 1층 104호 (시흥동 991-47)",금천구,37.45080919999999,126.9001604
615,GS25금천벽산타운점,"서울 금천구 금하로793, 404호B상가동 (시흥동 1010, 벽산아파트)",금천구,37.451862,126.918954
616,GS25금천사랑점,"서울 금천구 범안로12길15, 상가 105동 101호 (독산1동 1006-132, 삼환아파트)",금천구,37.46578969999999,126.8921275
617,GS25금천삼익점,서울 금천구 독산로50다길2 (시흥4동 796),금천구,37.46203680000001,126.9102359
618,GS25금천스타즈점,"서울 금천구 시흥대로315, 1층 호텔부대시설 (독산동 441-6, 스타즈호텔)",금천구,37.4506854,126.9012586
619,GS25금천영림점,"서울 금천구 시흥대로26길37, 1층 1호 (시흥동 953-9, 영림팰리스)",금천구,37.44192779999999,126.9058096
620,GS25금천왕창점,서울 금천구 독산로106길19 (독산3동 878-41),금천구,37.4780029,126.9049254
621,GS25금천우림점,"서울 금천구 가산디지털1로168, 외4필지 지상1층104(가산동 371-28)",금천구,37.4798346,126.8824997
622,GS25금천은하수점,"서울 금천구 시흥대로90길16, 1층 (독산동 1065-50)",금천구,37.4611707,126.899136
623,GS25금천은행점,서울 금천구 독산로42 (시흥동 908-24),금천구,37.4509834,126.9061162
624,GS25금천제일점,서울 금천구 가산로3길54 (가산동 235-34),금천구,37.4723481,126.8925722
625,GS25금천주원점,"서울 금천구 시흥대로123길47, 101동 102호,103호 (독산동 295-6)",금천구,37.4712421,126.8955131
626,GS25금천중앙점,"서울 금천구 시흥대로406, 13호 (독산동 286-8)",금천구,37.4695765,126.8984543
627,GS25금천초교점,서울 금천구 독산로22가길18 (시흥동 204-1),금천구,37.45344499999999,126.9108895
628,GS25금천타운점,서울 금천구 가산디지털2로169-31(가산동 494-4),금천구,37.4819234,126.8762454
629,GS25금천탑골점,서울 금천구 금하로29길15 (시흥동 263-11),금천구,37.4507428,126.9124556
630,GS25금천태양점,서울 금천구 시흥대로141길47(독산1동 144-49),금천구,37.4749053,126.8974852
631,GS25금천패션점,"서울 금천구 디지털로9길33, 101호(가산동 60-21, 아이티타워)",금천구,37.4789143,126.8860895
632,GS25금천하늘정원점,"서울 금천구 시흥대로39길48-16, 1층 (시흥동 492-15)",금천구,37.4472172,126.9009826
633,GS25금천한빛점,서울 금천구 독산로40길45(시흥4동 799-36),금천구,37.4609138,126.9068905
634,GS25금천해가든점,"서울 금천구 벚꽃로6길3, 101동 지1층 비04호 (독산동 1143, 이랜드해가든아파트)",금천구,37.4608384,126.8930743
635,GS25금천햇빛점,서울 금천구 시흥대로80길17 (독산동 1075-23),금천구,37.4590588,126.9006081
636,GS25금호극동점,"서울 성동구 난계로67, 상가동 104호,105호 (왕십리2동 1058, 극동미라주아파트)",성동구,37.5583372,127.0233961
637,GS25금호로자이점,"서울 성동구 금호로127, 상가동 B3 - 2호 (금호동2가 1215)",성동구,37.5528666,127.0223753
638,GS25금호베스트빌점,서울 성동구 난계로114-31 (하왕십리동 1052),성동구,37.5613016,127.0257932
639,GS25금호벽산점,"서울 성동구 금호로102 (금호동1가 633, 벽산아파트상가동502-2호)",성동구,37.5519071,127.0271876
640,GS25금호사거리점,"서울 성동구 독서당로335, 2층 (금호동1가 1558, 서희빌딩)",성동구,37.5481823,127.0263227
641,GS25금호역점,"서울 성동구 매봉길50, 상가동 B201호 (옥수동 528, 이편한세상옥수파크힐스)",성동구,37.5462602,127.0112278
642,GS25금호예향점,서울 성동구 독서당로265 (금호동4가 1028),성동구,37.5468301,127.0188419
643,GS25길동미래점,"서울 강동구 양재대로110길8, 1층 (길동 432)",강동구,37.5354466,127.139763
644,GS25길동베네치아점,"서울 강동구 명일로201, 101호 (길동 143-4, 서한베네치아)",강동구,37.536909,127.145604
645,GS25길동삼익점,"서울 강동구 명일로275, 1층 (길동 48)",강동구,37.543291,127.147576
646,GS25길동오네뜨점,"서울 강동구 양재대로124길32, 102호 (길동 339-1, 동서울오네뜨)",강동구,37.5425714,127.1436395
647,GS25길동우림점,"서울 강동구 양재대로124길70, 1층 (길동 342-8)",강동구,37.5422162,127.1458445
648,GS25길동우성점,서울 강동구 양재대로116길30 (길동 392-5),강동구,37.5381493,127.1420561
649,GS25길동타운점,서울 강동구 양재대로1518 (길동 347-14),강동구,37.5411199,127.1415344
650,GS25길동퍼스트점,"서울 강동구 양재대로113길14, 1층(길동 379-14)",강동구,37.5381215,127.1392276
651,GS25길동하이브점,"서울 강동구 진황도로100, 외1필지 1층 108호(길동 456-2, 길동하이브)",강동구,37.5353382,127.1373813
652,GS25길음뉴타운점,"서울 성북구 삼양로13길45, 111,112호(길음동 1281-6, 길음뉴타운)",성북구,37.61068160000001,127.0196517
653,GS25길음동부점,"서울 성북구 삼양로66, 지하 104호(길음2동 1141, 동부클리닉센타)",성북구,37.608951,127.0232704
654,GS25길음래미안,"서울 성북구 길음로9길50, 상가 112호 (길음동 1286, 길음뉴타운9단지)",성북구,37.6035622,127.0198289
655,GS25길음본점,"서울 성북구 길음로33, B동 19호(길음동 1284, 상가)",성북구,37.6075197,127.018009
656,GS25길음센터피스점,"서울 성북구 숭인로50, 108,109,110동 하부근생시설 근생36호 (길음동 498-1)",성북구,37.6124043,127.0272631
657,GS25길음역점,"서울 성북구 동소문로248, 105동 125~6호(길음1동 1276, 삼부아파트)",성북구,37.602671,127.0236243
658,GS25나눔위례호반점,"서울 송파구 위례송파로80, 101호 근린생활시설 (거여동 607)",송파구,37.5451275,127.0795447
659,GS25나라키움점,"서울 중구 삼일대로340, (1층2-1호) (저동1가 1-2, 남대문세무서)",중구,37.5650049,126.9882022
660,GS25나인트리호텔점,서울 중구 마른내로28 (초동 72-10),중구,37.5641111,126.9908268
661,GS25낙성대동점,서울 관악구 남부순환로244길14(인헌동 1631-5),관악구,37.4763519,126.9630152
662,GS25낙성대역점,"서울 관악구 남부순환로1937, 1층 (행운동 1687-23, 우송빌딩)",관악구,37.4768844,126.9646631
663,GS25낙성대점,"서울 관악구 관악로12길105, 1층(낙성대동 1626-35)",관악구,37.47727649999999,126.9581171
664,GS25낙성베스트점,"서울 관악구 인헌길35, 1층 (봉천동 1642-16)",관악구,37.473855,126.9669241
665,GS25난곡성당점,서울 관악구 난곡로26길34 (신림동 638-2),관악구,37.46996499999999,126.921619
666,GS25난곡센터점,"서울 관악구 난곡로30길27, 101동 101호 (신림동 630-7, 아름채)",관악구,37.471523,126.9216339
667,GS25남가좌명지점,"서울 서대문구 거북골로51, 1층 (남가좌동 343-50)",서대문구,37.5784217,126.9225723
668,GS25남가좌에코점,서울 서대문구 거북골로79 (남가좌동 226-9),서대문구,37.5767163,126.9203236
669,GS25남가좌점,"서울 서대문구 증가로117, 1층 (남가좌동 338-6)",서대문구,37.5769255,126.9243928
670,GS25남가좌창덕점,"서울 서대문구 모래내로143, 1층 상가 105호 (남가좌동 105-1)",서대문구,37.5694842,126.9172324
671,GS25남가좌홍제천점,"서울 서대문구 모래내로207, 102호, 103호 (남가좌동 80-26, 마마스빌딩)",서대문구,37.5732028,126.9224516
672,GS25남강학사점,"서울 관악구 난곡로181, 1층 (신림동 704-13, 성수빌딩)",관악구,37.4712695,126.9195201
673,GS25남구로가온점,"서울 구로구 디지털로27길120, 104호 (구로동 798-34)",구로구,37.4849143,126.8877112
674,GS25남구로점,"서울 구로구 도림로41-1, ,33 (구로4동 770-32)",구로구,37.4878722,126.8887337
675,GS25남구로포인트점,"서울 구로구 디지털로27길50, 1층 (구로동 252-96)",구로구,37.4838953,126.8914508
676,GS25남대문시장점,"서울 중구 퇴계로43 (남창동 47-14, 남대문지하철상가1층1호)",중구,37.5580923,126.9773351
677,GS25남대문타운점,"서울 중구 남대문로30, 2층(남창동 1-1)",중구,37.56079390000001,126.9790435
678,GS25남산단암점,서울 중구 소월로10 (남대문로5가 120),중구,37.5585026,126.9753986
679,GS25남산서울타워점,"서울 용산구 남산공원길105, 1층 112호 (용산동2가 산1-3, 서울타워플라자)",용산구,37.5509473,126.9892965
680,GS25남산제일점,서울 중구 퇴계로18길16-1 (남산동1가 6-5),중구,37.5601219,126.98533
681,GS25남산조이점,서울 중구 소공로6길22 (남산동1가 18-2),중구,37.5582664,126.9841497
682,GS25남산필동점,"서울 중구 필동로52, 1층 (필동2가 119-4)",중구,37.5569577,126.9955761
683,GS25남영역점,서울 용산구 한강대로259(갈월동 101-41),용산구,37.54168790000001,126.9725497
684,GS25남현번영점,"서울 관악구 승방4길27, 1층(남현동 602-38)",관악구,37.4748374,126.9804277
685,GS25남현으뜸점,"서울 관악구 승방길71, 지하1층 (남현동 602-121, 한성파크)",관악구,37.4724585,126.9783334
686,GS25남현태양점,서울 관악구 남부순환로260길36(남현동 1054-37),관악구,37.4746106,126.972354
687,GS25내곡포레스타점,"서울 서초구 청계산로7길43, 101호 (신원동 374, 서초포레스타5단지제상가동제1층)",서초구,37.4364058,127.0690107
688,GS25내발산프라임점,"서울 강서구 수명로68-11, 102호,103호,104호,105호 (내발산동 750-7)",강서구,37.5522512,126.8265295
689,GS25노고산본점,서울 마포구 신촌로16길8(노고산동 49-50),마포구,37.5553204,126.9348113
690,GS25노고산점,"서울 마포구 신촌로12다길15, 1층(노고산동 54-44)",마포구,37.5548587,126.9334665
691,GS25노고산호호점,"서울 마포구 신촌로20길12, 101호 (노고산동 31-23)",마포구,37.5541493,126.9384206
692,GS25노들역점,"서울 동작구 노량진로23가길23, 105호 (본동 494, 래미안트윈파크)",동작구,37.5150971,126.9503763
693,GS25노들제일점,"서울 동작구 노량진로252, 1층 (본동 48, 이치과의원)",동작구,37.51225040000001,126.954637
694,GS25노량메가점,"서울 동작구 노량진로140, 1층 103호 (노량진동 57-1, 메가스터디타워)",동작구,37.5129522,126.9415705
695,GS25노량스터디점,"서울 동작구 만양로73, 1층 (노량진1동 224-17)",동작구,37.5099639,126.9449415
696,GS25노량아이비점,"서울 동작구 장승배기로171, 1층(노량진1동 45-3, 아이비빌딩)",동작구,37.5129887,126.9399163
697,GS25노량아카데미점,"서울 동작구 노량진로14가길11, (82번지나루아카데미빌딩지하1층) (노량진1동 81, 나루아카데미)",동작구,37.5128011,126.9431121
698,GS25노량제일점,"서울 동작구 노량진로148-3, 1층(노량진1동 72-3)",동작구,37.51337480000001,126.9423778
699,GS25노량진본점,"서울 동작구 노량진로8길40, 1층 (노량진동 258-42)",동작구,37.5123836,126.9374533
700,GS25노량진수산시장점,"서울 동작구 노들로674, 지상2층 편의점호 (노량진동 13-6)",동작구,37.5144828,126.9370209
701,GS25노량진타운점,서울 동작구 노량진로200 (노량진동 141),동작구,37.5128665,126.947914
702,GS25노원구점,서울 노원구 노해로75길14-26(상계6.7동 708-3),노원구,37.6545423,127.058872
703,GS25노원두산점,서울 노원구 동일로241가길21 (상계동 1105-70),노원구,37.6763909,127.0536319
704,GS25노원두타점,"서울 노원구 한글비석로245, B동 126호(중계1동 360-9, 중계두타빌)",노원구,37.649542,127.0763583
705,GS25노원롯데점,"서울 노원구 동일로1426, 104호 (상계동 693, 미도빌딩)",노원구,37.6559099,127.0605366
706,GS25노원상계로점,"서울 노원구 상계로97, 1층 107호 (상계동 366-3, 노원위너스빌딩)",노원구,37.6570226,127.0656429
707,GS25노원상계본점,서울 노원구 덕릉로854 (상계동 71-49),노원구,37.6722376,127.0832321
708,GS25노원수락산역점,서울 노원구 동일로242가길16(상계1동 1117-68),노원구,37.6765251,127.0559972
709,GS25노원스타점,"서울 노원구 동일로1456, 103,110,111호 (상계동 692, 상계주공7단지상가)",노원구,37.6588121,127.0605385
710,GS25노원아이파크점,"서울 노원구 상계로23다길13-8, 101동 118,119호(상계2동 1318, 노원아이파크)",노원구,37.6595599,127.0691688
711,GS25노원역점,"서울 노원구 상계로74, 1층 (상계동 333)",노원구,37.6560141,127.0631067
712,GS25노원웰빙점,"서울 노원구 상계로1길14-11, , 6하이웰빙25코아 A-101 (상계2동 603-2)",노원구,37.65701790000001,127.0617489
713,GS25노원정보도서관점,"서울 노원구 노원로34길62, 1층 (상계동 430-4)",노원구,37.6615858,127.065919
714,GS25노원중앙점,"서울 노원구 동일로218길41, 101호 (상계6.7동 725-4, 영보빌딩)",노원구,37.6541503,127.0631574
715,GS25노원청산점,"서울 노원구 노해로451, 1층 2호(상계6.7동 705-2, 청산빌딩)",노원구,37.6540766,127.0582092
716,GS25노원파르코점,"서울 노원구 동일로1700, 1층 20호(상계1동 1267, 파르코상가)",노원구,37.6801286,127.0558065
717,GS25노원포레나점,"서울 노원구 노원로38길76, 상가동 106,107호 (상계동 680)",노원구,37.6627439,127.0624252
718,GS25노원하계점,서울 노원구 공릉로58길87 (하계1동 168-2),노원구,37.6356082,127.0732258
719,GS25노원한신점,서울 노원구 한글비석로24라길96 (상계동 135-20),노원구,37.6659814,127.0693822
720,GS25노유점,서울 광진구 동일로20길78(자양4동 6-39),광진구,37.5400986,127.0676935
721,GS25노유타운점,"서울 광진구 동일로4길50-2, 1층 (자양동 52-163)",광진구,37.5356983,127.0635233
722,GS25녹번가로길점,"서울 은평구 은평로21길36, 1층 (녹번동 89)",은평구,37.602779,126.9304747
723,GS25녹번본점,"서울 은평구 통일로590, 상가 B동 108,109호 (녹번동 276)",은평구,37.5999233,126.937111
724,GS25녹번역점,서울 은평구 통일로639(녹번동 35-96),은평구,37.6038203,126.934624
725,GS25녹번유림점,"서울 은평구 통일로626, 1층 (녹번동 38-29, 유림빌딩)",은평구,37.6024544,126.9354249
726,GS25녹번점,서울 은평구 통일로685(녹번동 117-61),은평구,37.6073087,126.932393
727,GS25녹번중앙점,"서울 은평구 녹번로9길19, 1층 (녹번동 120-17)",은평구,37.6076133,126.9295119
728,GS25녹번파크점,"서울 은평구 녹번로40, 상가 1층 (녹번동 100-55, 현대아파트)",은평구,37.6048808,126.9290505
729,GS25녹번퍼스트점,서울 은평구 은평로215 (녹번동 218),은평구,37.6013627,126.9316818
730,GS25녹번푸르지오점,"서울 은평구 통일로660, 상가 211호 부터 215호 (녹번동 281)",은평구,37.6034953,126.9321587
731,GS25녹번현대점,"서울 은평구 서오릉로46, 상가 (녹번동 278-1, 녹번2차현대아파트)",은평구,37.605103,126.9248422
732,GS25녹번힐스점,"서울 은평구 은평로240, 힐스테이트녹번역아파트 상가 B329호 (응암동 1-12)",은평구,37.6000329,126.9344872
733,GS25녹천본점,"서울 도봉구 덕릉로349, 일반상가 104호 (창1동 373, 주공4단지)",도봉구,37.6458199,127.0476912
734,GS25녹천역점,"서울 도봉구 덕릉로66길53, 101호(창4동 38-5, 주공17단지상가)",도봉구,37.6440167,127.0521403
735,GS25논현77점,서울 강남구 학동로33길46 (논현동 77),강남구,37.5177306,127.0322389
736,GS25논현경남점,서울 강남구 학동로42길73(논현2동 262-32),강남구,37.51093669999999,127.0377627
737,GS25논현금옥점,서울 강남구 강남대로132길48(논현1동 56),강남구,37.5128868,127.0219854
738,GS25논현누리점,"서울 강남구 학동로47길16, 1층 (논현동 112)",강남구,37.5176733,127.0386876
739,GS25논현대지본점,서울 강남구 강남대로124길5 (논현동 143-23),강남구,37.5088361,127.0231286
740,GS25논현동국점,서울 강남구 논현로131길6(논현1동 37-16),강남구,37.5145982,127.0297794
741,GS25논현동부점,"서울 강남구 학동로30길49, 101호(논현2동 220-18)",강남구,37.5110337,127.0333026
742,GS25논현동우점,"서울 강남구 봉은사로37길13, 1층 (논현동 232-5)",강남구,37.5091672,127.0364508
743,GS25논현동현점,서울 강남구 도산대로50길27(논현2동 99-19),강남구,37.5205686,127.0377216
744,GS25논현드림점,"서울 강남구 봉은사로1길9, 1층 (논현동 199-24)",강남구,37.5053712,127.0248217
745,GS25논현마루점,서울 강남구 봉은사로11길26(논현1동 188),강남구,37.5155317,127.0251861
746,GS25논현목련점,"서울 강남구 강남대로124길60, 1층 (논현1동 147, 영진빌딩)",강남구,37.5104489,127.0267249
747,GS25논현무궁화점,"서울 강남구 봉은사로143, 102호 (논현동 205-8, 운현오피스텔)",강남구,37.5064597,127.0301884
748,GS25논현미래점,서울 강남구 강남대로112길20 (논현1동 201-5),강남구,37.5054749,127.0260407
749,GS25논현보람점,서울 강남구 논현동254-22번지 1층,강남구,37.5136671,127.0410001
750,GS25논현사랑점,"서울 강남구 논현로123길40, 1층(논현1동 133-32)",강남구,37.51075549999999,127.028715
751,GS25논현삼익점,"서울 강남구 강남대로132길10, 101호(논현1동 51, 로뎀빌딩)",강남구,37.5121534,127.0219668
752,GS25논현성암점,"서울 강남구 선릉로605, 1층 (논현동 278-6, HJ빌딩)",강남구,37.5108216,127.0433327
753,GS25논현스카이점,"서울 강남구 도산대로8길15, 지하1층 (논현동 13-16)",강남구,37.51599,127.0224234
754,GS25논현스타점,"서울 강남구 도산대로26길23, 1층 (논현동 33)",강남구,37.5176054,127.0281885
755,GS25논현아크로점,"서울 강남구 언주로114길9, 1층 (논현동 275-5)",강남구,37.509999,127.0383505
756,GS25논현영동시장점,"서울 강남구 강남대로122길20, 101호 (논현1동 166-4)",강남구,37.5080139,127.0245995
757,GS25논현영동점,"서울 강남구 학동로2길19, 1층 (논현1동 141-7, 세일빌딩)",강남구,37.51002039999999,127.0229469
758,GS25논현우람점,"서울 강남구 학동로6길48, 1층 (논현1동 159-11)",강남구,37.5092032,127.0261144
759,GS25논현으뜸점,서울 강남구 봉은사로21길21(논현1동 189-14),강남구,37.507995,127.0306182
760,GS25논현은선점,"서울 강남구 선릉로127길12, 1층 (논현동 242-13, 현진빌딩)",강남구,37.5155476,127.0406673
761,GS25논현이편한점,"서울 강남구 봉은사로11길12 (논현동 195-1, 논현e편한세상)",강남구,37.5066542,127.0288551
762,GS25논현정노점,"서울 강남구 봉은사로25길37, 1층 (논현동 176-11)",강남구,37.5094841,127.0316837
763,GS25논현진실점,서울 강남구 언주로121길8(논현2동 218-22),강남구,37.5116923,127.0349501
764,GS25논현초교점,"서울 강남구 강남대로120길30, 1층 (논현동 181)",강남구,37.5074405,127.0259846
765,GS25논현최강점,"서울 서초구 신반포로329, 1층 1,2호 (잠원동 40-9, 세기빌딩)",서초구,37.5107685,127.0194906
766,GS25논현타운점,"서울 강남구 강남대로124길36, 1층(논현1동 159)",강남구,37.5153305,127.0290924
767,GS25논현파라곤점,서울 강남구 언주로130길18(논현2동 246-3),강남구,37.51495450000001,127.0369895
768,GS25논현평화점,서울 강남구 논현로115길69(논현1동 170-2),강남구,37.508292,127.027505
769,GS25논현하니점,서울 강남구 논현로131길31 (논현동 57-9),강남구,37.5137241,127.0277988
770,GS25논현학동점,서울 강남구 논현로146길11(논현2동 66-35),강남구,37.5181809,127.0299073
771,GS25논현한영점,"서울 강남구 논현로114길11, B1호(논현2동 229-26, 혜광빌딩)",강남구,37.508791,127.0343009
772,GS25논현행운점,서울 강남구 강남대로150길11(논현1동 1-5),강남구,37.5160007,127.0207841
773,GS25농협중앙회신협점,"서울 중구 새문안로16, 지하2층 (충정로1가 75-1)",중구,37.566407,126.9681206
774,GS25뉴가재울삼성점,"서울 서대문구 수색로6길17-14, 105, 106호 (북가좌동 484)",서대문구,37.57130160000001,126.9134116
775,GS25뉴가주초교점,서울 송파구 송이로23길52-42 (가락동 153-8),송파구,37.4971864,127.1280243
776,GS25뉴개포영광점,"서울 강남구 논현로4길12, 1층 (개포동 1168)",강남구,37.4725473,127.051228
777,GS25뉴고대민주광장점,"서울 성북구 고려대로113, B1 (안암동5가 43, 인촌로1빌딩)",성북구,37.5865262,127.024159
778,GS25뉴고대안암점,"서울 성북구 개운사길15, 1층 (안암동5가 101-16)",성북구,37.5870975,127.0290792
779,GS25뉴고대우신향점,"서울 성북구 안암로95-3, 1층 (안암동5가 103-134)",성북구,37.5844223,127.0308316
780,GS25뉴고덕샘터점,서울 강동구 동남로82길117 (고덕동 256-7),강동구,37.5603773,127.1634042
781,GS25뉴관악예은점,"서울 관악구 남부순환로224길21, 1층 (봉천동 854-5)",관악구,37.47988,126.9533662
782,GS25뉴관악청룡점,"서울 관악구 쑥고개로112, 1층 (봉천동 1573-1)",관악구,37.478864,126.9488398
783,GS25뉴광희제일점,"서울 중구 퇴계로342, 1층 (광희동2가 176)",중구,37.5642936,127.0095066
784,GS25뉴구로가온점,"서울 구로구 도림로14길15, 1층 (구로동 779-5)",구로구,37.48727290000001,126.8895883
785,GS25뉴구로삼거리점,서울 구로구 구로동로171 (구로동 415-9),구로구,37.49377310000001,126.882914
786,GS25뉴구산가온점,"서울 은평구 서오릉로17길18, 1층 (구산동 363-17)",은평구,37.6135114,126.908164
787,GS25뉴국제호텔점,"서울 중구 세종대로22길12, 1층 (태평로1가 25-3, 뉴국제호텔)",중구,37.5679234,126.9779478
788,GS25뉴금천갑을점,"서울 금천구 디지털로9길32, 110호 (가산동 60-5)",금천구,37.4794491,126.8874768
789,GS25뉴금천벽산점,"서울 금천구 벚꽃로244, 107호 (가산동 60-73, 벽산디지털밸리5차)",금천구,37.4769548,126.8857582
790,GS25뉴금천유진점,"서울 금천구 두산로5길58, 외 1필지 상가 104, 105호 (가산동 235-57, 드림캐슬주상복합아파트)",금천구,37.4730052,126.8908667
791,GS25뉴내발산점,"서울 강서구 강서로45나길59, 도화엘리시아 102 지1층 (내발산동 718-20)",강서구,37.5506035,126.8354765
792,GS25뉴답십리도서관점,서울 동대문구 답십리로38길13 (답십리동 474-8),동대문구,37.5736509,127.0503023
793,GS25뉴대방등용점,"서울 동작구 등용로101, 1층 (대방동 20-25, 한스빌)",동작구,37.5102308,126.9319335
794,GS25뉴도봉극동,"서울 도봉구 도봉로180길53, 1층 (도봉동 81-1)",도봉구,37.6824746,127.0493723
795,GS25뉴도봉신동아점,"서울 도봉구 방학로203, 102호 (방학동 272, 신동아상가)",도봉구,37.6606485,127.0291807
796,GS25뉴독산캐슬점,"서울 금천구 벚꽃로40, 114동 121호 (독산동 1147, 금천롯데캐슬골드파크1차)",금천구,37.4714971,126.9076273
797,GS25뉴마곡12단지점,"서울 강서구 마곡중앙1로26, 103호 (마곡동 798-12, 엠리체)",강서구,37.5764888,126.8307466
798,GS25뉴마곡14단지점,"서울 강서구 마곡중앙로33, 판매시설동 108호 (마곡동 750, 마곡엠밸리14단지)",강서구,37.5778316,126.8309159
799,GS25뉴마천중앙점,서울 송파구 거마로20길27 (마천동 128-63),송파구,37.4970302,127.1493631
800,GS25뉴모래내제일점,서울 서대문구 수색로2길8 (남가좌1동 102-16),서대문구,37.569143,126.9162842
801,GS25뉴번동기쁨,"서울 강북구 오현로35길62, 101호, 102호 (번동 234-2)",강북구,37.6319323,127.0382475
802,GS25뉴사당타운점,"서울 동작구 남부순환로269길97, 1층 (사당동 439-4)",동작구,37.4794087,126.9743246
803,GS25뉴삼성아트점,"서울 강남구 테헤란로103길8-10, 1층 (삼성동 169-25)",강남구,37.5100816,127.0651306
804,GS25뉴상도성대점,서울 동작구 성대로8길2 (상도동 259-16),동작구,37.4976174,126.933734
805,GS25뉴서강대학사점,"서울 마포구 백범로35, 1층 106호 (신수동 1-1, 곤자가플라자)",마포구,37.5513353,126.9407371
806,GS25뉴서초중앙점,"서울 서초구 사임당로26, 1층 (서초동 1597-1)",서초구,37.4876057,127.0129478
807,GS25뉴석촌센타점,"서울 송파구 가락로95, 1층 (석촌동 272-25)",송파구,37.5009686,127.1066231
808,GS25뉴성북동아점,"서울 성북구 장월로1길57, 1층 104호,105호 (상월곡동 57-3)",성북구,37.605929,127.0451954
809,GS25뉴성수뚝도점,서울 성동구 성수이로26 (성수동2가 335-230),성동구,37.5375859,127.0544679
810,GS25뉴송파스타힐스점,"서울 송파구 위례광장로215, 상가 (장지동 885, 위례스타힐스)",송파구,37.4804408,127.1457842
811,GS25뉴시흥대로점,"서울 금천구 시흥대로349, 1층 전체 (독산동 1009-31)",금천구,37.4646549,126.8971915
812,GS25뉴신당센터점,"서울 중구 퇴계로88길48, 1층 (신당동 145-6)",중구,37.5636387,127.0201111
813,GS25뉴신림로데오점,"서울 관악구 봉천로6길30, 1층 (신림동 1454-1)",관악구,37.488305,126.9254872
814,GS25뉴신림사랑점,"서울 관악구 신림동1길21, 1층 (신림동 1431-25)",관악구,37.4865217,126.9285545
815,GS25뉴신림신원점,서울 관악구 남부순환로168길42 (신림동 1583-23),관악구,37.481013,126.9242236
816,GS25뉴신월삼정점,"서울 양천구 남부순환로69길13, 1층 (신월동 420-15)",양천구,37.5232267,126.8381388
817,GS25뉴신촌행복점,"서울 서대문구 신촌로61, 1층 (창천동 72-25)",서대문구,37.55661360000001,126.9334358
818,GS25뉴양재강남점,"서울 서초구 강남대로6길66-18, 1층 (양재동 358-6)",서초구,37.467779,127.0448605
819,GS25뉴양재시장점,"서울 서초구 남부순환로356길70, 1층 (양재동 15-25)",서초구,37.4817158,127.0384451
820,GS25뉴역삼월드점,"서울 강남구 역삼로52길14, 101호 (역삼동 754-2)",강남구,37.4985129,127.0479773
821,GS25뉴연남제일점,"서울 마포구 연남로3길61, 1층 (연남동 565-1)",마포구,37.5598185,126.9196507
822,GS25뉴온수역점,"서울 구로구 경인로3길82, 1층 (온수동 53-4)",구로구,37.4918211,126.8232939
823,GS25뉴왕십리동진점,서울 성동구 왕십리로381-1 (하왕십리동 893-3),성동구,37.5645526,127.0277646
824,GS25뉴은평타운점,"서울 은평구 진관2로90, 320동 B106호 (진관동 107, 은평뉴타운 마고정 상가)",은평구,37.6331074,126.9273834
825,GS25뉴을지로입구점,"서울 중구 을지로지하 42, 202의 104호 (을지로1가 100-1)",중구,37.5660664,126.9820222
826,GS25뉴자양대동점,"서울 광진구 뚝섬로511, 1층 GS25뉴자양대동점 (자양동 553-205)",광진구,37.5357175,127.0672387
827,GS25뉴잠실점,"서울 송파구 오금로11길30, 102호 (방이동 59-3)",송파구,37.5150316,127.110358
828,GS25뉴잠실희망점,"서울 송파구 올림픽로10길36, 1층 (잠실동 200-3)",송파구,37.5084716,127.0814654
829,GS25뉴장충행복점,서울 중구 장충단로189 (장충동1가 57-9),중구,37.5616052,127.0060028
830,GS25뉴충무로명보점,"서울 중구 마른내로51, 중구인현 (인현동1가 101-1, 인더라인)",중구,37.5644674,126.9936246
831,GS25뉴평창파크팰리스점,"서울 종로구 평창문화로87, 상가동 (평창동 153-3, 평창파크팰리스)",종로구,37.6072201,126.9707916
832,GS25뉴한강세빛섬점,"서울 서초구 올림픽대로2085-14, 1층 (반포동 650, 세빛섬(가빛))",서초구,37.5114101,126.9932583
833,GS25뉴한성대점,"서울 성북구 삼선교로10길23, 1층 (좌측) (삼선동2가 150)",성북구,37.5870381,127.009459
834,GS25뉴화양타운점,서울 광진구 능동로13길89 (화양동 33-20),광진구,37.5453412,127.0684215
835,GS25능동사랑점,"서울 광진구 능동로258, 1층 코너 (능동 283-6, 천지빌딩)",광진구,37.5529549,127.0775435
836,GS25능동중앙점,"서울 광진구 능동로36길95, 1층(능동 246-4)",광진구,37.5545693,127.0841402
837,GS25능동타운점,"서울 광진구 능동로32길65, 1층 (능동 234-35)",광진구,37.5541665,127.0820468
838,GS25다동타운점,"서울 중구 다동길43, 1층 (다동 70, 한외빌딩)",중구,37.5681784,126.9816006
839,GS25답십리동아점,"서울 동대문구 답십리로60길134, 상가동 103호 (답십리동 10-3, 동아아파트상가)",동대문구,37.5676621,127.0617366
840,GS25답십리래미안점,"서울 동대문구 답십리로130 (답십리동 1003, 래미안위브)",동대문구,37.5715541,127.0537097
841,GS25답십리센터점,"서울 동대문구 사가정로5길1, 1층 (전농동 325-139)",동대문구,37.5761435,127.0551636
842,GS25답십리역점,"서울 동대문구 고미술로57, 상가 14호 (답십리동 994)",동대문구,37.566969,127.0539143
843,GS25답십리우성점,"서울 동대문구 답십리로57길53, 상가동 101호 (답십리동 80-1, 답십리청솔우성아파트상가)",동대문구,37.5750807,127.0611001
844,GS25답십리중앙점,"서울 동대문구 천호대로265, 1층 (답십리1동 496-1)",동대문구,37.568254,127.0513523
845,GS25답십리청마루점,"서울 동대문구 답십리로59길6, 외1필지 (답십리동 2-148)",동대문구,37.5729993,127.065865
846,GS25답십리청솔점,서울 동대문구 답십리로51길14-13 (답십리동 89-13),동대문구,37.57388,127.0589914
847,GS25답십리타운점,"서울 동대문구 전농로53, 1층 (답십리동 260-1)",동대문구,37.5696923,127.0568944
848,GS25답십리한신점,"서울 동대문구 한천로17길23, 1층(답십리2동 4-73)",동대문구,37.5699021,127.0627579
849,GS25답십리한양점,"서울 동대문구 답십리로182, 1층 (답십리2동 62-19)",동대문구,37.5726506,127.0602986
850,GS25답십리한천로점,"서울 동대문구 한천로37길19 (답십리동 1-548, 창승빌딩)",동대문구,37.5762414,127.066231
851,GS25당곡역점,"서울 관악구 신림로391, 1층 (신림동 1429-1)",관악구,37.4890316,126.9278085
852,GS25당산NC점,"서울 영등포구 양평로49, 1층 (당산동5가 16-1, 대림빌딩)",영등포구,37.5340569,126.9009846
853,GS25당산SK점,"서울 영등포구 당산로41길11, E-109-2 (당산동4가 80)",영등포구,37.5307871,126.8981
854,GS25당산강변점,"서울 영등포구 버드나루로130, 상가 1층(당산동6가 376, 강변래미안)",영등포구,37.52947109999999,126.9084217
855,GS25당산계룡점,"서울 영등포구 국회대로55길10, 제1층-1 (당산동 121-162)",영등포구,37.5260165,126.9083193
856,GS25당산골드점,"서울 영등포구 국회대로37길25, 105호 106호 (당산동4가 32-2)",영등포구,37.5289467,126.9005561
857,GS25당산공원점,서울 영등포구 양산로19길11 (당산동3가 398-3),영등포구,37.5253279,126.8949357
858,GS25당산금호점,서울 영등포구 국회대로37길15(당산동4가 32-102),영등포구,37.5283084,126.900036
859,GS25당산대로점,서울 영등포구 당산로32길1-11(당산동3가 190),영등포구,37.5269541,126.8983838
860,GS25당산대우점,"서울 영등포구 당산로30길9, 1층 (당산동3가 223-6)",영등포구,37.5256377,126.8977119
861,GS25당산래미안점,"서울 영등포구 당산로214, 상가 2동 1층 102호 (당산동5가 42, 당산삼성래미안)",영등포구,37.5318721,126.9031482
862,GS25당산미래점,"서울 영등포구 영등포로106, 102동 106호 (당산동2가 16-1, 대우아파트)",영등포구,37.5211385,126.8929533
863,GS25당산삼환점,서울 영등포구 영중로157-11 (영등포동8가 85-12),영등포구,37.5303419,126.9048666
864,GS25당산새말점,서울 영등포구 영등포로25길5 (당산동1가 24),영등포구,37.5203358,126.900006
865,GS25당산쉐르빌점,"서울 영등포구 당산로45길1, 상가 110호 (당산동5가 9-2, 쉐르빌)",영등포구,37.5334463,126.9010241
866,GS25당산스타점,"서울 영등포구 영신로219, 106호(당산동4가 1-2, 코오롱스타폴리스)",영등포구,37.5273438,126.9028113
867,GS25당산양남점,서울 영등포구 선유동1로12-1(당산동2가 111),영등포구,37.5231708,126.8918485
868,GS25당산양평점,"서울 영등포구 양평로16, 21번지 대정프라자(당산동6가 216-8)",영등포구,37.53284319999999,126.9044827
869,GS25당산양화점,"서울 영등포구 선유로52길11, 1층 (당산동6가 342, 석천)",영등포구,37.535893,126.8996134
870,GS25당산역점,"서울 영등포구 양평로64, 1층 (당산동6가 338-1, 한경빌딩)",영등포구,37.5350961,126.8999555
871,GS25당산정고을점,서울 영등포구 당산로49길20(당산동6가 350-14),영등포구,37.5363932,126.9011777
872,GS25당산진미점,"서울 영등포구 버드나루로19길5 (당산동 121-115, 찬솔원룸)",영등포구,37.5283622,126.9073868
873,GS25당산하나점,"서울 영등포구 영등포로103, 106호 (당산동2가 37, 하나비즈타워)",영등포구,37.522011,126.8931735
874,GS25당산한강점,서울 영등포구 당산로48길11 (당산동6가 293-1),영등포구,37.5347279,126.9033882
875,GS25당산현대점,"서울 영등포구 국회대로29길3, 1층 (당산동4가 92, 현대아파트)",영등포구,37.5289234,126.8960264
876,GS25당산효성점,"서울 영등포구 당산로205, 상가 104호 (당산동5가 9-3, 당산역효성해링턴타워오피스텔)",영등포구,37.5328714,126.9002677
877,GS25대륭포스트점,"서울 구로구 디지털로306, 1층 102호(구로3동 182-13, 대륭포스트타워ⅱ)",구로구,37.4858838,126.8973216
878,GS25대림그랜드점,"서울 영등포구 대림로198, 101호 (대림동 689-1, 대경빌딩)",영등포구,37.4984618,126.8986147
879,GS25대림나누리점,서울 영등포구 대림로31길26(대림3동 732-5),영등포구,37.49623890000001,126.8960023
880,GS25대림도신로점,서울 영등포구 도신로36(대림3동 605-28),영등포구,37.5045275,126.8970553
881,GS25대림밸리소홈점,서울 영등포구 대림동1101-7번지,영등포구,37.4865597,126.9000322
882,GS25대림본점,서울 영등포구 디지털로54가길2(대림2동 1024-11),영등포구,37.4887117,126.9029813
883,GS25대림소망점,"서울 영등포구 가마산로329, 1층(대림3동 778-32, 소망빌딩)",영등포구,37.4991619,126.8959095
884,GS25대림승리점,서울 영등포구 도림로47길13 (대림동 694-6),영등포구,37.4962802,126.8998478
885,GS25대림역점,서울 영등포구 대림로29길43 (대림3동 808-26),영등포구,37.4937366,126.8954081
886,GS25대림우성점,"서울 구로구 도림로22길8, 상가동 102호, 103호 (구로동 1260)",구로구,37.4897123,126.8937531
887,GS25대림으뜸점,서울 영등포구 도림로41길6(대림3동 710),영등포구,37.4948418,126.8989484
888,GS25대림제일점,"서울 영등포구 시흥대로591, 1층 일부 (대림동 994-4)",영등포구,37.4856365,126.9030828
889,GS25대림춘혜점,서울 영등포구 대림로219 (대림3동 779-8),영등포구,37.5000968,126.8971273
890,GS25대림파밀리에점,"서울 영등포구 도림로54길16, 상가동 103호,105호 (대림동 1124)",영등포구,37.4958485,126.9027225
891,GS25대림한신점,서울 영등포구 디지털로413(대림1동 879-1),영등포구,37.4934168,126.9041327
892,GS25대방경남점,"서울 동작구 여의대방로54길14, 1층 (대방동 344-1, 경준빌딩)",동작구,37.5118739,126.9267261
893,GS25대방서울점,"서울 동작구 상도로17-8 (대방동 397-26, 새문빌딩 101,102호)",동작구,37.5002152,126.9226419
894,GS25대방성남점,서울 동작구 대방동23길18(대방동 376-28),동작구,37.5041179,126.9243604
895,GS25대방쉐르빌점,"서울 동작구 등용로49, A동 B01호 (대방동 5-2)",동작구,37.5057595,126.9329948
896,GS25대방승화점,"서울 동작구 대방동길97, ,29 지하2층(대방동 383-28)",동작구,37.50595089999999,126.9233037
897,GS25대방역점,"서울 영등포구 여의대방로62길2, 1층 (신길7동 1432, 봉덕빌딩)",영등포구,37.5137903,126.9266705
898,GS25대방중앙점,서울 동작구 여의대방로36길4 (대방동 389-3),동작구,37.5038961,126.9224691
899,GS25대방타운점,서울 동작구 여의대방로24라길32 (대방동 402-7),동작구,37.4993402,126.9226375
900,GS25대방현대점,"서울 동작구 등용로127, 종합상가 가동 102호 (대방동 502, 현대)",동작구,37.5126967,126.9308125
901,GS25대조엘점,서울 은평구 통일로69길37 (대조동 31-11),은평구,37.6097326,126.9252592
902,GS25대조온누리점,"서울 은평구 연서로20길28, 1층(대조동 214-1)",은평구,37.6142439,126.9209943
903,GS25대조초교점,"서울 은평구 연서로18길10-1, 1층 101호 (대조동 225-5, 대조동창희빌라)",은평구,37.6120538,126.9186701
904,GS25대조초롱점,"서울 은평구 통일로65길13-18, 1층 (대조동 15-119)",은평구,37.6087235,126.9287247
905,GS25대조포인트점,"서울 은평구 서오릉로8길7, 1층 (대조동 64-7)",은평구,37.6082368,126.9224821
906,GS25대조해오름점,"서울 은평구 통일로67길11, 1층 101호(대조동 9-40, 해오름시티)",은평구,37.6105076,126.9281385
907,GS25대조행운점,"서울 은평구 역말로9길7, 101호 (대조동 171-1)",은평구,37.6117023,126.9216053
908,GS25대치SK타운점,"서울 강남구 삼성로51길25, 104,105호 (대치동 612, 대치SK-VIEW아파트)",강남구,37.496114,127.059466
909,GS25대치골드점,"서울 강남구 선릉로86길48 (대치4동 896-52, 동창빌딩)",강남구,37.5040754,127.053616
910,GS25대치대명점,"서울 강남구 영동대로85길17, B동 122호 (대치동 950, 우정에쉐르)",강남구,37.5068204,127.0622577
911,GS25대치래미안점,"서울 강남구 남부순환로2927, 1층 117호 (대치동 622, 대치 클래시아)",강남구,37.4938605,127.0602089
912,GS25대치명문점,"서울 강남구 선릉로90길56, 1동 101호 (대치4동 891-23, 대우아이빌명문가)",강남구,37.5050714,127.0537731
913,GS25대치미래점,"서울 강남구 역삼로63길24, 1층 101호(대치4동 900)",강남구,37.5027486,127.0519928
914,GS25대치사랑점,"서울 강남구 역삼로77길7, 1층(대치4동 904-19)",강남구,37.5029476,127.0562508
915,GS25대치삼성점,"서울 강남구 테헤란로98길8, 1층(대치2동 945-10, KT&G코스모대치타워)",강남구,37.5076557,127.0620505
916,GS25대치삼성타운점,"서울 강남구 도곡로78길22, 상가동 112,113호 (대치동 1014-3)",강남구,37.4965682,127.0588507
917,GS25대치삼호점,서울 강남구 테헤란로108길11(대치2동 997-9),강남구,37.5086544,127.0661619
918,GS25대치선릉점,"서울 강남구 선릉로86길16, 1층(대치4동 897-33)",강남구,37.5032246,127.0510085
919,GS25대치스카이점,"서울 강남구 역삼로558, 1층 (대치동 968)",강남구,37.5046917,127.0642421
920,GS25대치에이스점,서울 강남구 삼성로71길41 (대치4동 916-11),강남구,37.50118399999999,127.0555424
921,GS25대치오토웨이점,"서울 강남구 영동대로417, 지하1층 (대치동 948)",강남구,37.5061687,127.063924
922,GS25대치은마점,"서울 강남구 영동대로57길16, 1층 (대치동 992-4)",강남구,37.499966,127.0661061
923,GS25대치은마타운점,서울 강남구 삼성로58길11 (대치동 989-6),강남구,37.498778,127.0621966
924,GS25대치은행점,서울 강남구 삼성로64길35 (대치2동 976-7),강남구,37.5006474,127.0631752
925,GS25대치제일점,"서울 강남구 선릉로72길20, 1층(대치4동 920-8)",강남구,37.5003207,127.0528265
926,GS25대치중앙점,"서울 강남구 역삼로78길26, 1층 101호(대치4동 916-40)",강남구,37.5007615,127.0573561
927,GS25대치타운점,"서울 강남구 선릉로76길25, 1층 (대치동 900-13, 진범빌딩)",강남구,37.5019844,127.0525329
928,GS25대치타워점,"서울 강남구 선릉로90길36, 1층 (대치4동 890-47, 미소빌딩)",강남구,37.5046105,127.0521446
929,GS25대치학여울점,"서울 강남구 영동대로213, 101호(대치2동 994-12)",강남구,37.4977738,127.0686226
930,GS25대치학원점,서울 강남구 도곡로511(대치2동 988-17),강남구,37.499591,127.0622226
931,GS25대치희망점,"서울 강남구 삼성로307, 1층 101호 (대치4동 941-16)",강남구,37.4993801,127.0602822
932,GS25대한제당점,"서울 송파구 올림픽로299, B1 (신천동 7-23)",송파구,37.5154135,127.1035358
933,GS25대흥백범점,"서울 마포구 백범로20길26, 1층 (대흥동 440-2)",마포구,37.5457858,126.944051
934,GS25대흥큰우물점,"서울 마포구 큰우물로39-4, 1층 (대흥동 575)",마포구,37.5433718,126.9432408
935,GS25덕수궁캐슬점,"서울 중구 서소문로9길28, B114호 (순화동 217, 덕수궁롯데캐슬)",중구,37.5637417,126.9704545
936,GS25덕수점,서울 중구 세종대로89 (태평로2가 362-1),중구,37.5644326,126.9764719
937,GS25도곡STX점,서울 강남구 논현로24길17(도곡2동 450-5),강남구,37.4818378,127.0443785
938,GS25도곡럭키본점,"서울 강남구 남부순환로365길56, 104호 (도곡동 895-4)",강남구,37.4889884,127.0402449
939,GS25도곡렉슬점,"서울 강남구 선릉로225, 지하층 비101,102호 (도곡동 527-3, 도곡렉슬상가)",강남구,37.4953504,127.0527143
940,GS25도곡롯데점,서울 강남구 도곡로14길7(도곡1동 547),강남구,37.4902404,127.0374165
941,GS25도곡매봉점,"서울 강남구 논현로30길51, 1층 (도곡2동 419-5, 석진빌딩)",강남구,37.48515099999999,127.0457169
942,GS25도곡센터점,서울 강남구 남부순환로359길6 (도곡동 959-26),강남구,37.4854807,127.0370389
943,GS25도곡신호점,"서울 강남구 도곡로184, 1층 101호 (도곡1동 544, 신호빌딩)",강남구,37.4917395,127.0396045
944,GS25도곡아카데미점,"서울 강남구 언주로30길21, A동 1층 105호 (도곡동 467-7, 아카데미스위트)",강남구,37.4885335,127.0520866
945,GS25도곡양재점,"서울 강남구 남부순환로351길14, 1층 (도곡1동 954)",강남구,37.48568119999999,127.0345555
946,GS25도곡역점,"서울 강남구 남부순환로2912, 상가동 1층 104호 (대치동 500, 그랑프리앤상가)",강남구,37.4908748,127.0573085
947,GS25도곡점,서울 강남구 남부순환로2730(도곡2동 411-16),강남구,37.48570309999999,127.0446821
948,GS25도곡타운점,"서울 강남구 논현로30길7, 1층 일부 (도곡동 515-5)",강남구,37.4830854,127.0429956
949,GS25도곡타워점,"서울 강남구 남부순환로2806, 112호 (도곡동 467-12, 군인공제회관)",강남구,37.4890581,127.0528941
950,GS25도곡푸른점,"서울 강남구 강남대로272, 102동 101호(도곡1동 949-2, 도곡푸르지오)",강남구,37.48774,127.0328905
951,GS25도림로점,"서울 영등포구 도림로133, 1층 2호 (대림동 1050-10)",영등포구,37.4930394,126.8967889
952,GS25도림제일점,서울 영등포구 도신로69 (도림동 251-8),영등포구,37.5062991,126.9000684
953,GS25도림행복점,"서울 영등포구 도신로29길8-1, 1층 (도림동 113-12)",영등포구,37.5092531,126.9051567
954,GS25도림현대점,서울 영등포구 도신로147 (도림동 76-1),영등포구,37.5097265,126.9078169
955,GS25도봉공원점,"서울 도봉구 방학로104, 1층 (방학동 689-23, 법성빌딩)",도봉구,37.662963,127.0407114
956,GS25도봉구청점,"서울 도봉구 마들로664, 1층 (도봉동 636-12, 킴스타워)",도봉구,37.6693897,127.0464436
957,GS25도봉럭키점,"서울 도봉구 도봉로169나길38, 101,102호 (도봉동 597-19)",도봉구,37.677968,127.0434045
958,GS25도봉로점,"서울 도봉구 도봉로642, 1층 (창동 746)",도봉구,37.6615657,127.0425134
959,GS25도봉방학로점,"서울 도봉구 방학로33, 1층 코너 (방학동 724-30)",도봉구,37.6621048,127.048552
960,GS25도봉북서울점,"서울 도봉구 도봉로177길26, 1층(도봉1동 564-17)",도봉구,37.6818091,127.0447417
961,GS25도봉서원점,"서울 도봉구 마들로724, 상가동 137,139호 (도봉동 657, 도봉한양수자인)",도봉구,37.67449939999999,127.0476796
962,GS25도봉소망점,"서울 도봉구 시루봉로27길23, 1층 (도봉1동 614-24)",도봉구,37.6722889,127.0425252
963,GS25도봉신성점,서울 도봉구 도봉로154길23 (도봉동 623-133),도봉구,37.6713662,127.0454061
964,GS25도봉쌍문점,"서울 도봉구 도봉로135길24, 1층(쌍문2동 713-45)",도봉구,37.6590167,127.0392945
965,GS25도봉으뜸점,"서울 도봉구 도봉로180길6-25, 동아에코빌A 상가동 106호 (도봉동 654)",도봉구,37.6814584,127.0468345
966,GS25도봉정의점,"서울 도봉구 노해로49길69-4, 1층 상가 좌측 (쌍문동 137-52)",도봉구,37.6529105,127.0318063
967,GS25도봉중앙점,"서울 도봉구 노해로61길4, 1층 (창동 700-72, 리솜하우스)",도봉구,37.6520946,127.0377627
968,GS25도봉타운점,서울 도봉구 도봉산3길7 (도봉동 557-1),도봉구,37.6869057,127.044343
969,GS25도선쉐르빌점,"서울 성동구 무학로6길50, 101동 103호 (도선동 69, 성동삼성쉐르빌)",성동구,37.5642545,127.0349244
970,GS25도신초교점,"서울 영등포구 대림로34길25-2, 1층 (대림동 684-14)",영등포구,37.4996893,126.9008665
971,GS25도화베네스트점,"서울 마포구 새창로6길43, 지층 (도화동 2-338)",마포구,37.54031459999999,126.9518272
972,GS25도화삼보점,"서울 마포구 도화길43, 101호 (도화동 571, 나눔빌딩)",마포구,37.5418193,126.9503113
973,GS25도화새창점,"서울 마포구 새창로14, 1층(도화동 183-13)",마포구,37.54201380000001,126.9515081
974,GS25독립문초교점,"서울 종로구 통일로12길24-2, 독립문할인마트 (무악동 46-1734)",종로구,37.5736391,126.9605594
975,GS25독바위역점,"서울 은평구 불광로131, 1층(불광1동 13-31)",은평구,37.618512,126.9327788
976,GS25독산골드파크3차점,"서울 금천구 시흥대로291, GS25 (독산동 1155, 독산골드파크3차점)",금천구,37.4506854,126.9012586
977,GS25독산골드파크점,"서울 금천구 벚꽃로30, 205동 118호 (독산동 448-13, 금천롯데캐슬골드파크2차)",금천구,37.4586732,126.8928869
978,GS25독산두산로점,"서울 금천구 두산로36, 1층 (102호-103호, 진도아파트 상가) (독산동 1133)",금천구,37.4700382,126.8920399
979,GS25독산문성점,서울 금천구 남부순환로126길69 (독산3동 895-24),금천구,37.4773403,126.907618
980,GS25독산반수점,서울 금천구 독산로313(독산3동 978-36),금천구,37.474821,126.9032455
981,GS25독산소망점,서울 금천구 독산로267 (독산동 194-4),금천구,37.4705897,126.9026595
982,GS25독산쌈지점,"서울 금천구 독산로80길13, 1층(독산4동 181-65)",금천구,37.4711394,126.9039335
983,GS25독산우림점,"서울 금천구 가산디지털1로2, 113호(가산동 680, 우림라이온스밸리2차)",금천구,37.4667551,126.8881386
984,GS25독산우정점,"서울 금천구 독산로75길34, 1층 (독산동 196-21)",금천구,37.4692256,126.9005361
985,GS25독산정심점,서울 금천구 독산로74길21(독산4동 185-7),금천구,37.4686558,126.9037979
986,GS25독산중앙점,"서울 금천구 독산로306 (독산3동 977-24, 경희태권도학원)",금천구,37.4740309,126.9035442
987,GS25독산초교점,서울 금천구 독산동1050번지,금천구,37.4642375,126.9006453
988,GS25독산푸르지오점,"서울 금천구 독산로108길101, 1층 (독산동 901-14)",금천구,37.480294,126.9094767
989,GS25독산하이점,서울 금천구 독산로73길33 (독산동 1024),금천구,37.4677653,126.8999866
990,GS25독산한양점,서울 금천구 시흥대로150길21 (독산동 965-26),금천구,37.475806,126.9000643
991,GS25독산행복점,"서울 금천구 독산로103길30, 1층 (독산동 963-11)",금천구,37.47662,126.9019416
992,GS25돈암한진점,"서울 성북구 성북로4길52, 한진@상가서관 418-2101(돈암동 609-1)",성북구,37.5947663,127.0104379
993,GS25동교사랑점,서울 마포구 월드컵북로2길57(동교동 158-1),마포구,37.557432,126.9233386
994,GS25동교타운점,"서울 마포구 동교로25길15, 1층(동교동 201-1)",마포구,37.5576784,126.9215117
995,GS25동교행복점,"서울 마포구 와우산로167, 2층 (동교동 182-8)",마포구,37.5558267,126.9307093
996,GS25동국사랑점,"서울 중구 동호로25길45, 1층 (장충동2가 193-154, 장환빌라)",중구,37.55940349999999,127.0010395
997,GS25동국타운점,"서울 중구 동호로25길15, B1(장충동2가 193-87)",중구,37.5586027,127.0021311
998,GS25동대문DDP점,"서울 중구 을지로281, 디자인장터 C1호 (을지로7가 2-1)",중구,37.5667521,127.0101046
999,GS25동대문SK점,"서울 동대문구 사가정로148, 상가1동 106호 107호 (전농동 10)",동대문구,37.5764921,127.0604586
1000,GS25동대문구청점,서울 동대문구 고산자로28길39 (용두동 39-714),동대문구,37.5749266,127.0404721
1001,GS25동대문두산점,"서울 동대문구 전농로2길10, 1층 (답십리1동 488-25)",동대문구,37.5666149,127.0570725
1002,GS25동대문메가점,"서울 동대문구 천호대로241, 102동 202호 (답십리동 999, 청계벽산메가트리움)",동대문구,37.5697684,127.049643
1003,GS25동대문배봉점,"서울 동대문구 한천로39길28, 1층 (전농2동 3-57)",동대문구,37.5783602,127.0668498
1004,GS25동대문쇼핑점,"서울 중구 퇴계로73가길34, 1층 2층 1호 (신당동 251-77)",중구,37.5668696,127.0134876
1005,GS25동대문신동아점,서울 동대문구 무학로26길33 (용두동 122-24),동대문구,37.5734655,127.0325686
1006,GS25동대문신설점,서울 동대문구 한빛로24(신설동 25-1),동대문구,37.5775916,127.0255912
1007,GS25동대문용두점,서울 동대문구 천호대로31길50(용두동 39-419),동대문구,37.5755711,127.0413978
1008,GS25동대문장안교점,"서울 동대문구 사가정로260, 1층 (장안동 314-4)",동대문구,37.57912030000001,127.0736751
1009,GS25동대문장안점,서울 동대문구 장한로165(장안2동 305-1),동대문구,37.5750974,127.0716385
1010,GS25동대문정릉천점,"서울 동대문구 왕산로23길89, 상가동 101호 (제기동 252, 이수브라운스톤)",동대문구,37.5822992,127.0342126
1011,GS25동대문지웰점,"서울 동대문구 난계로242, 104호 105호 (신설동 117-12, 신설동지웰홈스)",동대문구,37.5731258,127.0236006
1012,GS25동대문패션점,"서울 중구 을지로254, 101호 (을지로6가 23, 타임캐슬오피스텔)",중구,37.5659415,127.0062814
1013,GS25동대문한신점,"서울 동대문구 황물로42, 1층 1호 (답십리1동 542-1)",동대문구,37.5732855,127.0462213
1014,GS25동대후문점,"서울 중구 서애로1길35, 1층(묵정동 29-23, 동국빌딩)",중구,37.5609834,127.0000167
1015,GS25동덕여대사랑점,"서울 성북구 화랑로13길42, 1층 101호(월곡2동 21-56)",성북구,37.6050677,127.0417578
1016,GS25동묘역점,"서울 종로구 종로344, 1층(숭인2동 310, 대우디오빌)",종로구,37.5727002,127.0160721
1017,GS25동부시장점,"서울 중랑구 봉우재로41, 1층(면목2동 183-24)",중랑구,37.5907242,127.07785
1018,GS25동부이촌점,"서울 용산구 이촌로182, 108호 (이촌동 302-68, 기업은행)",용산구,37.5209735,126.9673472
1019,GS25동빙고점,서울 용산구 장문로6길97(동빙고동 1-10),용산구,37.52602419999999,126.9963383
1020,GS25동선행복점,"서울 성북구 동소문로27길31, 1층 101호 (동선동4가 295-4, 벨라미아오피스텔)",성북구,37.5956819,127.0199549
1021,GS25동성하나점,"서울 강서구 금낭화로23길8, 상가동 104,105,108,109호 (방화동 817)",강서구,37.5795421,126.8121795
1022,GS25동소문본점,서울 성북구 성북로2길38(동소문동1가 108),성북구,37.5896795,127.0078711
1023,GS25동소문제일점,서울 성북구 동소문로2길97(동소문동3가 45),성북구,37.5899106,127.0108634
1024,GS25동소문타운점,서울 성북구 동소문로17길12(동소문동6가 138-3),성북구,37.5930061,127.0150133
1025,GS25동숭점,서울 종로구 동숭길140(혜화동 201),종로구,37.58362350000001,127.0025479
1026,GS25동여의점,"서울 영등포구 여의대방로65길23, 101호 (여의도동 45-13, 포레스텔빌딩)",영등포구,37.5200985,126.9287872
1027,GS25동자제일점,서울 용산구 한강대로102길12 (갈월동 1-5),용산구,37.5497099,126.9726614
1028,GS25동자플래티넘점,"서울 용산구 한강대로372, C동 108호 (동자동 45, 센트레빌아스테리움서울)",용산구,37.5523409,126.972128
1029,GS25동작대방점,서울 동작구 상도로80(대방동 336-13),동작구,37.4994969,126.9293654
1030,GS25동작도서관점,"서울 동작구 장승배기로96, 1층 102호 (노량진2동 310-99)",동작구,37.5061081,126.9398846
1031,GS25동작드림점,"서울 동작구 상도로34길18, 1층 (상도2동 29-37)",동작구,37.5040575,126.9454341
1032,GS25동작사당점,"서울 동작구 동작대로9길39, 1층(사당1동 1026-38)",동작구,37.480564,126.9793379
1033,GS25동작상도점,서울 동작구 상도로130(상도동 355-6),동작구,37.5017193,126.9342986
1034,GS25동작상떼빌점,"서울 동작구 신대방1가길38, 106동 116호 118(신대방1동 719, 상떼빌)",동작구,37.4875294,126.9067493
1035,GS25동작서림점,"서울 동작구 사당로215, 1층 111호(사당3동 252-17, 서림테마상가)",동작구,37.4843751,126.9723299
1036,GS25동작성대점,"서울 동작구 성대로12길1, 1층 (상도4동 263-8, 상도동다빈모1프라자)",동작구,37.4974854,126.935302
1037,GS25동작센타점,서울 동작구 양녕로28길28 (상도동 212-36),동작구,37.4981864,126.9451491
1038,GS25동작신라점,"서울 동작구 시흥대로602, 1층 (신대방1동 686-53)",동작구,37.4859758,126.9044969
1039,GS25동작엠코타운점,"서울 동작구 상도로346-1, 상도엠코타운 상가3동 103,104호 (상도동 531)",동작구,37.4954127,126.9510182
1040,GS25동작우체국점,서울 동작구 여의대방로22길78 (신대방동 361-55),동작구,37.4976172,126.924293
1041,GS25동작유한점,"서울 동작구 등용로14길44, 1층 (대방동 43-2, 시티모텔)",동작구,37.5118985,126.9339119
1042,GS25동작이편한점,"서울 동작구 국사봉2길35, 1층 (신대방동 340-6)",동작구,37.4970461,126.9285715
1043,GS25동작정금마을점,"서울 동작구 동작대로189, 1층 102호 (동작동 55-21)",동작구,37.49364070000001,126.9823354
1044,GS25동작중심점,서울 동작구 사당로20나길18 (사당동 318-92),동작구,37.4818026,126.9747192
1045,GS25동작한양점,"서울 동작구 노량진로6길59, 1층 (노량진2동 289-88, 이례그린미술원)",동작구,37.5104496,126.9362116
1046,GS25동작현대점,"서울 동작구 현충로151, 상가동 B1층 (흑석동 28, 한강현대아파트)",동작구,37.5066126,126.9702257
1047,GS25두타몰점,"서울 중구 장충단로275, 5층 아가방 (을지로6가 18-12)",중구,37.5689316,127.0087977
1048,GS25둔촌신성점,서울 강동구 진황도로206 (둔촌2동 134-6),강동구,37.527956,127.1437104
1049,GS25둔촌역점,"서울 강동구 양재대로1367, 103호 (성내3동 416-4)",강동구,37.5282758,127.1359081
1050,GS25둔촌주공점,서울 강동구 풍성로247 (둔촌2동 163),강동구,37.5281809,127.1391981
1051,GS25둔촌프라자점,서울 강동구 천호대로198길32(둔촌2동 611-1),강동구,37.5344993,127.1480484
1052,GS25드림타워2점,"서울 구로구 디지털로31길41, 1층 (구로동 197-28, ENC벤처드림타워6차)",구로구,37.4851381,126.8927305
1053,GS25등촌NC점,서울 강서구 강서로56가길41(등촌3동 678-2),강서구,37.5614335,126.8400165
1054,GS25등촌서낭점,"서울 강서구 화곡로63길125, 1층(등촌3동 663-7, 윤준빌딩)",강서구,37.5587418,126.8461395
1055,GS25등촌센트럴점,"서울 강서구 공항대로59다길39, 101동 1층 3호,4호 (등촌동 633-24)",강서구,37.5613271,126.8139798
1056,GS25등촌스타점,"서울 강서구 등촌로39길6, 6호(등촌2동 512-7)",강서구,37.5455488,126.862008
1057,GS25등촌점,"서울 강서구 화곡로61길100, 101호(등촌3동 662-6)",강서구,37.558397,126.8470016
1058,GS25등촌캐빈점,서울 강서구 공항대로51길17 (등촌동 654-58),강서구,37.5551561,126.8573936
1059,GS25등촌타운점,"서울 강서구 공항대로541, 상가 B01호 (염창동 274-17, 센터스퀘어등촌아파트)",강서구,37.5505493,126.8663356
1060,GS25등촌한마음점,서울 강서구 공항대로58길32(등촌2동 532-1),강서구,37.5503668,126.8623942
1061,GS25등촌한올림점,"서울 강서구 화곡로64길2, 101동 103호 (등촌동 656, 경동미르웰한울림)",강서구,37.5390049,126.8289527
1062,GS25등촌현대점,"서울 강서구 등촌로163 (등촌2동 715, 등촌아이파크@주상가동1층105호)",강서구,37.54378760000001,126.8604505
1063,GS25디에이치자이점,"서울 강남구 영동대로22, 상가 827동 S2B1-0211호 (일원동 611-1)",강남구,37.5121481,127.0609078
1064,GS25디오센터점,"서울 중구 서소문로38, 111호(중림동 500, 디오센터)",중구,37.5603965,126.9661931
1065,GS25디큐브시티점,"서울 구로구 경인로662, 지하1층 편의점 (신도림동 692, 디큐브시티)",구로구,37.5084321,126.8887332
1066,GS25뚝섬본점,"서울 성동구 아차산로38 (성수동1가 656-766, 개풍빌딩)",성동구,37.5465385,127.0484355
1067,GS25뚝섬유원지점,"서울 광진구 능동로4길17, 1층 (자양동 553-376)",광진구,37.5333386,127.0687835
1068,GS25라마다호텔점,서울 중구 순화동195-1번지 포스코더샵빌딩 1층 112호,중구,37.5602695,126.9720807
1069,GS25래미안포레스트점,"서울 강남구 개포로264, 상가 B동 101호 (개포동 656, 개포래미안포레스트)",강남구,37.485149,127.0598953
1070,GS25로데오점,서울 강남구 선릉로161길31 (신사동 659-9),강남구,37.5274984,127.0378148
1071,GS25마곡10단지점,"서울 강서구 마곡중앙1로72, 상가동 104호 (마곡동 747, 마곡엠밸리10단지)",강서구,37.5764888,126.8307466
1072,GS25마곡7단지점,"서울 강서구 마곡서로133, 713동 101호 (마곡동 743-4, 마곡엠밸리7단지)",강서구,37.5764888,126.8307466
1073,GS25마곡9단지점,"서울 강서구 공항대로103, 마곡엠벨리9단지 판매시설2동 102호,103호 일부 (마곡동 744)",강서구,37.5617155,126.8175365
1074,GS25마곡LG사이언스점,"서울 강서구 마곡중앙10로30, 지하1층 (마곡동 770-1, 엘지사이언스파크)",강서구,37.5724803,126.837837
1075,GS25마곡SB점,서울 강서구 마곡동739-3번지 마곡SB타운 1층 110호,강서구,37.5619185,126.826919
1076,GS25마곡SH점,"서울 강서구 공항대로205, 104호 (마곡동 774, 에스에이치빌딩)",강서구,37.5600109,126.827233
1077,GS25마곡더블유점,"서울 강서구 방화대로294, 1층 113호 (마곡동 739-1, 마곡더블유타워)",강서구,37.5673906,126.8167359
1078,GS25마곡루체점,"서울 강서구 마곡동로4길23, 102호 (마곡동 797-12, 레지던스루체브릿지호텔)",강서구,37.5626372,126.983924
1079,GS25마곡미르웰점,"서울 강서구 강서로455, 101동 113호 (마곡동 784-2, 마곡경동미르웰)",강서구,37.5765339,126.8299863
1080,GS25마곡보타닉점,"서울 강서구 마곡중앙5로6, 109,128,129호 (마곡동)",강서구,37.564979,126.827427
1081,GS25마곡비즈점,"서울 강서구 마곡중앙5로1길20, 117,118호 (마곡동 757-3)",강서구,37.560518,126.9218568
1082,GS25마곡서브원점,서울 강서구 마곡동279-4번지 서브원사옥 오피스동 B1F,강서구,37.5669853,126.8284921
1083,GS25마곡시티점,"서울 강서구 마곡서로170, 109호 (마곡동 758, 마곡시티오피스텔)",강서구,37.569376,126.8254544
1084,GS25마곡에이스점,"서울 강서구 마곡동로61, 104호 (마곡동 772-8, 에이스프라자)",강서구,37.5728417,126.8291011
1085,GS25마곡에코점,"서울 강서구 공항대로195, 102동 136호 (마곡동 773-3, 힐스테이트에코동익)",강서구,37.5598672,126.8292891
1086,GS25마곡오드점,"서울 강서구 강서로429, 122호 (마곡동 784-11, 마곡오드카운티1차)",강서구,37.5638899,126.8395715
1087,GS25마곡유림점,"서울 강서구 강서로419, 1층 104호 (마곡동 793, 유림트윈파크)",강서구,37.5764888,126.8307466
1088,GS25마곡일성점,"서울 강서구 마곡중앙로161-22, B동 1층 122호 (마곡동 758-2, 마곡일성트루엘플래닛)",강서구,37.5764888,126.8307466
1089,GS25마곡파크뷰점,"서울 강서구 마곡중앙6로85, 104호 (마곡동 795-5, 마곡사이언스파크뷰)",강서구,37.5764888,126.8307466
1090,GS25마곡퍼스트점,"서울 강서구 마곡중앙로76, 104호 (마곡동 773, 힐스테이트에코마곡역)",강서구,37.5677844,126.8266858
1091,GS25마곡힐스테이트점,"서울 강서구 공항대로269-15, 1층 118호 (마곡동 797-14, 힐스테이트 에코 마곡)",강서구,37.5593184,126.8374706
1092,GS25마로니에점,"서울 종로구 대학로8가길111, 1층 (동숭동 1-100)",종로구,37.5809331,127.0035144
1093,GS25마장세림점,"서울 성동구 마장로40길12-1, 18호 (마장동 793-1)",성동구,37.5650687,127.0430684
1094,GS25마장스타점,서울 성동구 고산자로22길8 (마장동 512-7),성동구,37.5689759,127.0382278
1095,GS25마장역점,서울 성동구 마장로301 (마장동 772-4),성동구,37.5663961,127.0429858
1096,GS25마장중앙점,서울 성동구 마조로15길5 (마장동 800-20),성동구,37.5635907,127.040922
1097,GS25마천공원점,서울 송파구 거마로24길5 (마천2동 47-7),송파구,37.4998494,127.1482013
1098,GS25마천센타점,서울 송파구 마천로51길22 (마천동 178-85),송파구,37.4966094,127.1521126
1099,GS25마천우방점,"서울 송파구 성내천로211, 104동 102호 (마천2동 576, 마천우방아파트)",송파구,37.5002405,127.1519544
1100,GS25마포LG점,"서울 마포구 마포대로155, 지하1층(공덕동 275, 마포LG빌딩)",마포구,37.5483082,126.9536165
1101,GS25마포구청역점,"서울 마포구 월드컵로196, 1층(성산2동 591-4, 대명비첸시티)",마포구,37.5647641,126.9027386
1102,GS25마포금솔점,"서울 마포구 만리재옛길46, 1층 (신공덕동 5)",마포구,37.5477877,126.9569079
1103,GS25마포당인점,서울 마포구 토정로13-1(합정동 376-27),마포구,37.5457959,126.9124126
1104,GS25마포도화점,서울 마포구 도화2길2(도화동 344),마포구,37.5403263,126.9485829
1105,GS25마포독막로점,"서울 마포구 독막로26길10, 1층 (신수동 354-1, 수담)",마포구,37.5468999,126.9349775
1106,GS25마포만리재점,서울 마포구 만리재옛길103(아현동 407-1),마포구,37.5513406,126.9617236
1107,GS25마포사랑점,"서울 마포구 마포대로4라길32, 지1층, 1층 (마포동 292-64)",마포구,37.53694249999999,126.9463176
1108,GS25마포성산로점,서울 마포구 월드컵북로204 (성산2동 148-51),마포구,37.5689225,126.9063384
1109,GS25마포성산점,"서울 마포구 월드컵북로121, 1층 (성산1동 53-2)",마포구,37.5637036,126.9125677
1110,GS25마포성지점,"서울 마포구 도화동성지빌딩538, 106 107호",마포구,37.541544,126.945822
1111,GS25마포세울점,"서울 마포구 백범로1길84, 1층 (노고산동 19-1)",마포구,37.5558343,126.9411544
1112,GS25마포신수점,"서울 마포구 광성로4길11-10, 1층(신수동 88-16)",마포구,37.5493764,126.9379288
1113,GS25마포역점,"서울 마포구 토정로320, 1층 (용강동 51-8, 백남빌딩)",마포구,37.5393196,126.943917
1114,GS25마포연남점,"서울 마포구 성미산로29안길25, 1층 전체 (연남동 241-87)",마포구,37.5654693,126.9234459
1115,GS25마포영진점,"서울 마포구 마포대로63-8 (도화동 173, 삼창프라자1층3-1호)",마포구,37.5378576,126.9463805
1116,GS25마포왕연점,"서울 마포구 모래내로3길2, 상가동 102호 (성산동 597, 제)",마포구,37.5647969,126.905586
1117,GS25마포풍림점,"서울 마포구 마포대로127, 104호(공덕동 404, 풍림VIP텔)",마포구,37.5461823,126.9522142
1118,GS25마포하이엘점,"서울 마포구 마포대로173, 107호(공덕동 463, 현대하이엘)",마포구,37.5486706,126.960672
1119,GS25마포한강점,"서울 마포구 월드컵로3길14, 208호 209호 (합정동 473, 마포한강2차푸르지오)",마포구,37.5499618,126.9103649
1120,GS25마포한림점,서울 마포구 포은로67(망원1동 394-86),마포구,37.5532647,126.9059901
1121,GS25마포한우물점,서울 마포구 월드컵로16길3(서교동 440-15),마포구,37.5570369,126.9097412
1122,GS25마포허브점,"서울 마포구 마포대로204, 105호 (아현동 737, 마포에스케이허브블루)",마포구,37.5519822,126.9565201
1123,GS25마포현대점,"서울 마포구 토정로233, 1층 (신수동 442-1)",마포구,37.5441063,126.9365302
1124,GS25망리단길점,"서울 마포구 희우정로12길11, 1층 일부 (망원동 398-14)",마포구,37.5537385,126.9036427
1125,GS25망우금호점,"서울 중랑구 망우로504, 1층 (망우동 133-7, 한양빌딩)",중랑구,37.6002329,127.1079912
1126,GS25망우미디어점,"서울 중랑구 망우로73길46, 1층 (망우본동 342-1)",중랑구,37.60245080000001,127.1034041
1127,GS25망우베스트점,서울 중랑구 용마산로116길16 (망우동 363-8),중랑구,37.5992499,127.1013429
1128,GS25망우본점,서울 중랑구 망우로67길7 (망우동 358-7),중랑구,37.6005198,127.1010309
1129,GS25망우으뜸점,"서울 중랑구 망우로68길56, 상가 1층 (망우동 364-39, 빙그레슈퍼)",중랑구,37.5974471,127.1008879
1130,GS25망우제일점,서울 중랑구 용마산로112길37 (망우본동 366-4),중랑구,37.5986771,127.1025649
1131,GS25망우중앙점,서울 중랑구 망우로411(망우본동 488-4),중랑구,37.5995471,127.0978921
1132,GS25망우한마음점,"서울 중랑구 용마산로99길9, 1층 코너(망우3동 531-24)",중랑구,37.5918396,127.097419
1133,GS25망우한일점,"서울 중랑구 겸재로61길9, 1층 (망우3동 525-1, 한일슈퍼)",중랑구,37.5905479,127.0947703
1134,GS25망원1호점,서울 마포구 마포나루길435 (망원동 205-5),마포구,37.5546098,126.8957099
1135,GS25망원2호점,서울 마포구 마포나루길407 (망원동 205-5),마포구,37.5546098,126.8957099
1136,GS25망원그린점,서울 마포구 방울내로76-1(망원2동 475-52),마포구,37.5603165,126.9038859
1137,GS25망원나래길점,서울 마포구 월드컵로11길14(망원1동 379-41),마포구,37.5547421,126.9101447
1138,GS25망원마젤란점,서울 마포구 방울내로9안길1 (망원동 470-3),마포구,37.5617619,126.9028324
1139,GS25망원명품길점,"서울 마포구 월드컵로23길25, 1층 (망원1동 57-376)",마포구,37.556679,126.9077725
1140,GS25망원솔루체점,"서울 마포구 방울내로1길24, 1층 일부호 (망원동 439-1)",마포구,37.5562301,126.8985392
1141,GS25망원스카이점,"서울 마포구 동교로3길105, 1층 코너 (망원동 462-5)",마포구,37.554809,126.8990004
1142,GS25망원오리엔탈점,"서울 마포구 방울내로9안길71, 101,102,103호 (망원동 466-1)",마포구,37.5601779,126.8995393
1143,GS25망원중앙점,서울 마포구 월드컵로126(성산1동 260-39),마포구,37.5595133,126.9072445
1144,GS25망원포은로점,"서울 마포구 포은로98, 1층 코너면 (망원동 411-41)",마포구,37.5557059,126.9050444
1145,GS25망원하늘점,"서울 마포구 망원로3길8, 1층 (망원2동 421-30)",마포구,37.5571135,126.9016748
1146,GS25망원희망점,서울 마포구 희우정로16길7(망원1동 406-16),마포구,37.5542854,126.90228
1147,GS25먹골보람점,서울 중랑구 공릉로2길8(묵1동 176-1),중랑구,37.6119035,127.0783656
1148,GS25먹골역점,서울 중랑구 동일로157길5(묵2동 244-144),중랑구,37.6097559,127.0773886
1149,GS25먹골중앙점,서울 중랑구 동일로156길10(묵1동 122-347),중랑구,37.6097401,127.0787162
1150,GS25메가스퀘어점,"서울 강동구 고덕로399, 144호 (고덕동 210-1, 고덕센트럴푸르지오)",강동구,37.5576095,127.1699516
1151,GS25면목겸재점,"서울 중랑구 겸재로50길52, 1층 (면목동 71-23)",중랑구,37.5888115,127.0932332
1152,GS25면목금성점,"서울 중랑구 봉우재로20가길27, 1층 (면목동 134-8)",중랑구,37.5912097,127.0824605
1153,GS25면목금호점,"서울 중랑구 면목로40길44, 1층 101,102호 (면목7동 582-33, 성일빌라)",중랑구,37.577906,127.0891076
1154,GS25면목동원점,"서울 중랑구 동일로96길46, 1층 (면목동 157-2, 대화슈퍼)",중랑구,37.5846209,127.0825256
1155,GS25면목동일점,서울 중랑구 동일로95길9 (면목동 172-58),중랑구,37.5847163,127.0790349
1156,GS25면목두성점,서울 중랑구 겸재로9길54 (면목동 179-98),중랑구,37.5888315,127.078358
1157,GS25면목라온점,서울 중랑구 동일로91길20 (면목동 172-84),중랑구,37.5830104,127.0784343
1158,GS25면목본점,"서울 중랑구 면목로432, 1층 야채왕 우리농산물마트 (면목동 121-26)",중랑구,37.5904866,127.0872678
1159,GS25면목샘터점,"서울 중랑구 면목로21길9, 1층 (면목동 398-1)",중랑구,37.5723878,127.0832564
1160,GS25면목서일2점,서울 중랑구 용마산로96길35 (망우동 436-27),중랑구,37.5899502,127.099437
1161,GS25면목서일점,서울 중랑구 용마산로94길31 (면목3.8동 46-12),중랑구,37.5888318,127.0985842
1162,GS25면목수성점,"서울 중랑구 봉우재로26길32, 1층 (면목동 138-3, 고문안마트)",중랑구,37.590895,127.0847517
1163,GS25면목스타점,서울 중랑구 면목로49길63 (면목동 592-1),중랑구,37.5828343,127.0849772
1164,GS25면목역점,서울 중랑구 겸재로169-1 (면목동 120-22),중랑구,37.5882697,127.0864121
1165,GS25면목점,"서울 중랑구 면목로341, 경남상가(면목3.8동 497-7)",중랑구,37.5822302,127.0881876
1166,GS25면목제일점,"서울 중랑구 답십리로77길127, 101호 (면목동 345-1, 동일리치빌)",중랑구,37.5743089,127.081822
1167,GS25면목지구점,"서울 중랑구 겸재로15길44, 1층 (면목동 140-52)",중랑구,37.5882808,127.0818126
1168,GS25면목타운점,"서울 중랑구 겸재로24길9, 1층 (면목동 149-12)",중랑구,37.5865309,127.0821421
1169,GS25면목퍼스트점,서울 중랑구 답십리로87길17 (면목동 393-127),중랑구,37.5718577,127.0853187
1170,GS25면목하늘점,서울 중랑구 면목로35길40(면목7동 661-62),중랑구,37.5789932,127.083943
1171,GS25면목한성점,서울 중랑구 면목로39길8(면목7동 634-10),중랑구,37.57973,127.0871629
1172,GS25면목한신점,서울 중랑구 겸재로3길54 (면동동 178-30),중랑구,37.5883513,127.0767493
1173,GS25면목행복점,"서울 중랑구 면목로54길45, 1층 (면목동 430-33)",중랑구,37.5833757,127.0910223
1174,GS25면목행운점,서울 중랑구 겸재로54길38 (면목동 106-38),중랑구,37.5875708,127.0915918
1175,GS25면목황금점,"서울 중랑구 용마산로81길13, 1층 (면목동 64-1)",중랑구,37.5850783,127.0935571
1176,GS25명덕사랑점,"서울 강서구 강서로47길36, 1층 (내발산동 681-17)",강서구,37.5528999,126.8341597
1177,GS25명동IB점,서울 중구 명동8가길22 (충무로2가 63-5),중구,37.5615529,126.9861911
1178,GS25명륜성대점,서울 종로구 명륜길2(명륜1가 15),종로구,37.5878491,126.9965618
1179,GS25명륜스타점,"서울 종로구 대학로11길23, 102-3,4호(명륜4가 113-1, 스타시티빌딩)",종로구,37.58202410000001,127.0004101
1180,GS25명륜아남점,서울 종로구 혜화로9(명륜1가 46-18),종로구,37.5864037,127.0001591
1181,GS25명일센트럴점,"서울 강동구 양재대로134길26, 1층 (명일동 342-1)",강동구,37.5475342,127.1449724
1182,GS25명일점,서울 강동구 구천면로427(명일1동 315-13),강동구,37.5504459,127.1461523
1183,GS25명일주공점,"서울 강동구 구천면로476, 상가동 122호 (명일2동 257, 주공9단지)",강동구,37.5477835,127.1508034
1184,GS25명일청솔점,"서울 강동구 동남로71길20 (명일2동 48-15, 청솔빌딩)",강동구,37.5519004,127.1550799
1185,GS25명일타운점,"서울 강동구 구천면로424, 113,114호 (명일1동 325-11, 명일메가타운)",강동구,37.5503207,127.145546
1186,GS25명지가좌로점,"서울 은평구 가좌로7가길25-55, 1층(응암3동 247-102)",은평구,37.5839385,126.9218531
1187,GS25명지송정점,서울 서대문구 거북골로10 (홍은동 401-40),서대문구,37.5810288,126.925878
1188,GS25명지장학점,"서울 서대문구 명지대길46, 1층 전체 (홍은동 421-2)",서대문구,37.5821673,126.9241543
1189,GS25명지점,서울 서대문구 거북골로37(남가좌2동 324-50),서대문구,37.57924,126.9237764
1190,GS25목3동점,"서울 양천구 목동중앙북로8라길14, 1층 (목동 624-9)",양천구,37.5463497,126.8644254
1191,GS25목동10단지점,"서울 양천구 목동서로400, A동 101호 (신정동 311, 목동신시가지아파트10단지)",양천구,37.5173772,126.8584609
1192,GS25목동13단지점,"서울 양천구 목동동로100, C상가 106호, 117호 (신정동 327, 목동신시가지아파트13단지)",양천구,37.51463160000001,126.865836
1193,GS25목동4단지점,"서울 양천구 목동서로130 (목5동 904, 목동신시가지아파트4단지)",양천구,37.5319108,126.8717678
1194,GS25목동고목점,"서울 양천구 목동중앙본로26, 1층(목2동 751-2)",양천구,37.5389496,126.870253
1195,GS25목동금강점,"서울 양천구 목동중앙로89, 112호,113호,114호 (목동 753-12, 로얄빌딩)",양천구,37.5372755,126.8719574
1196,GS25목동금호점,"서울 양천구 오목로337-10, 104호(목1동 406-271, 소망빌딩)",양천구,37.5251801,126.8753593
1197,GS25목동낙원점,"서울 양천구 목동중앙본로7가길65, 1층 (목동 318-116)",양천구,37.5424323,126.8665149
1198,GS25목동대일점,"서울 양천구 목동중앙남로11길26, 1층 (목3동 719-27)",양천구,37.5393171,126.8645083
1199,GS25목동드웰점,"서울 양천구 은행정로5길24-1, 1동 1층 102호 (신정동 1027-30)",양천구,37.5210687,126.8570573
1200,GS25목동라벨라점,"서울 양천구 목동서로383, 102호, 103호 (신정동 323-6)",양천구,37.5275112,126.8712422
1201,GS25목동리치점,"서울 양천구 목동중앙북로7가길61, 106호(목3동 613-1, 목동 RICH SQUARE)",양천구,37.548982,126.8644669
1202,GS25목동문화점,서울 양천구 목동중앙본로74-1 (목동 30-16),양천구,37.5424826,126.8695128
1203,GS25목동미소점,"서울 양천구 목동중앙북로18길26, 101호/102호 (목동 525-25)",양천구,37.54504500000001,126.8749704
1204,GS25목동법무점,"서울 양천구 목동중앙본로18길39, 1층 (목동 231-98)",양천구,37.54112550000001,126.8711899
1205,GS25목동법원점,"서울 양천구 목동로9길1, 1층 일부 (신정동 1009-7)",양천구,37.5228647,126.8643697
1206,GS25목동베스트점,"서울 양천구 목동중앙본로27길37, 1층 (목동 553-21)",양천구,37.5442927,126.8683753
1207,GS25목동본점,"서울 양천구 목동남로4길6-23, 우성2차아파트상가 B동 지하1층 (신정동 337)",양천구,37.5077394,126.8664753
1208,GS25목동삼익점,"서울 양천구 목동동로12길45, 상가 1층 (목1동 933, 목동삼익아파트)",양천구,37.5229444,126.8738458
1209,GS25목동센트럴점,"서울 양천구 목동서로349(신정6동 321-6, 센트럴빌딩)",양천구,37.5173729,126.8653092
1210,GS25목동수정점,"서울 양천구 목동중앙남로5, 1층 (목동 772-5)",양천구,37.5349944,126.8691597
1211,GS25목동스위트점,"서울 양천구 목동서로65, 103호(목5동 907-5)",양천구,37.5360848,126.8787178
1212,GS25목동스퀘어점,"서울 양천구 목동동로130, B동 상가 19호, 20호, 22호 (신정동 329)",양천구,37.5149985,126.8725405
1213,GS25목동시장점,"서울 양천구 목동중앙남로10길19, 1층 (목동 740-32)",양천구,37.5383785,126.8674464
1214,GS25목동아람점,"서울 양천구 목동중앙북로16길16, 1층 (목동 527-15, 목동오성드림빌)",양천구,37.5455511,126.8736172
1215,GS25목동역점,"서울 양천구 목동로219, 104호 (신정동 899-5)",양천구,37.5279211,126.8637907
1216,GS25목동제일점,"서울 양천구 목동서로280, 상가 117호(신정6동 314, 목동8단지아파트)",양천구,37.521472,126.8678893
1217,GS25목동중앙점,"서울 양천구 목동중앙북로60, 106호 (목동 502-1, 신화타워아파트)",양천구,37.5468814,126.8696919
1218,GS25목동칸타빌점,"서울 양천구 목동중앙서로8길23, 1층 (목동 803-1)",양천구,37.5315944,126.8663033
1219,GS25목동타워점,"서울 양천구 목동서로221, 106호 (목동 923-15, 굿모닝탑)",양천구,37.52766889999999,126.8707501
1220,GS25목동파크점,"서울 양천구 목동남로4길56, 1층 내 (신정동 171-25)",양천구,37.5091719,126.8673947
1221,GS25목동퍼스트점,"서울 양천구 목동서로38, B상가 3개 호실 (목동 901, 목동신시가지아파트1단지)",양천구,37.539193,126.8794362
1222,GS25목동한가람점,"서울 양천구 목동동로435, , 화성프라자 101호, 102호 (목동 909-5)",양천구,37.5373376,126.8848476
1223,GS25목동햇살점,"서울 양천구 목동중앙남로14길1, 1층 (목동 715-8)",양천구,37.5404144,126.8656198
1224,GS25목동현대점,"서울 양천구 오목로300, 205동 122호(목1동 961, 현대하이페리온)",양천구,37.5241644,126.8703368
1225,GS25목동호반써밋점,"서울 양천구 중앙로29길11, 지하2층 101호, 103호 (신정동 1150-41, 호반써밋목동)",양천구,37.517039,126.8527558
1226,GS25목동홍익점,"서울 양천구 목동중앙서로6, 1층 (목4동 794-1)",양천구,37.5323388,126.8645315
1227,GS25목동희망점,"서울 양천구 오목로322, 1층(목1동 405-282, 보성빌딩)",양천구,37.5245504,126.8730122
1228,GS25무교YG타워점,"서울 중구 남대문로9길40, 111호 (다동 155, YG타워)",중구,37.5671953,126.9806564
1229,GS25무역센타점,"서울 강남구 테헤란로87길25, 1층 13호(삼성1동 154-13)",강남구,37.509412,127.0582031
1230,GS25무학여고점,"서울 성동구 고산자로201, 1층 좌측일부 (행당2동 319-23, 서정대내과)",성동구,37.5580159,127.0337407
1231,GS25묵동사랑점,서울 중랑구 공릉로68(묵1동 318-1),중랑구,37.6163584,127.0796585
1232,GS25묵동사자점,"서울 중랑구 중랑역로239, 1층 (묵동 233-106, 명사약국)",중랑구,37.6148917,127.0751809
1233,GS25묵동신안점,"서울 중랑구 공릉로2길47, 상가동 101호,102호 (묵1동 381, 신안1차아파트)",중랑구,37.612654,127.0808957
1234,GS25묵동아이파크점,"서울 중랑구 동일로163길40, 1층(묵2동 237-66, 이레교회)",중랑구,37.6118362,127.0749447
1235,GS25묵동이편한점,"서울 중랑구 숙선옹주로9길45-8, 1층 (묵동 50-3, 환진힐타운)",중랑구,37.617034,127.083455
1236,GS25묵동제일점,"서울 중랑구 동일로143길24 (묵2동 250-39, 적순빌딩)",중랑구,37.60530960000001,127.0772365
1237,GS25묵동중앙점,서울 중랑구 동일로151길29 (묵동 246-1),중랑구,37.6078716,127.0763178
1238,GS25묵동하늘점,서울 중랑구 숙선옹주로5길28 (묵동 60-4),중랑구,37.6157236,127.0809859
1239,GS25묵동현대점,서울 중랑구 묵동377 세원아파트상가동 1호2호,중랑구,37.6092392,127.0743403
1240,GS25문래LG점,서울 영등포구 당산로34(문래동3가 55-5),영등포구,37.517425,126.8964798
1241,GS25문래공원점,서울 영등포구 도림로441-1 (문래동2가 15-1),영등포구,37.5143871,126.8938245
1242,GS25문래그랜드점,"서울 영등포구 선유로9나길22, 1층 (문래동5가 19-12, 전일빌딩)",영등포구,37.5157245,126.8859001
1243,GS25문래동국점,"서울 영등포구 선유로76, 101호 (문래동3가 84-2, 동국메뜨리앙)",영등포구,37.5206222,126.8899239
1244,GS25문래미원점,"서울 영등포구 문래로38, 102호,103호 (문래동6가 54, 문래동미원아파트)",영등포구,37.5198753,126.8863451
1245,GS25문래센터점,"서울 영등포구 경인로82길3-4, 104호(문래동1가 39, 센터플러스)",영등포구,37.5120117,126.8968819
1246,GS25문래승호점,"서울 영등포구 경인로77길14, 1층 (문래동2가 40-6, 영문빌딩)",영등포구,37.5130121,126.8928682
1247,GS25문래시티점,"서울 영등포구 경인로775, 129호 (문래동3가 55-20, 에이스하이테크시티)",영등포구,37.5143974,126.8993822
1248,GS25문래신안점,서울 영등포구 문래동4가41 신안인스빌단지내상가 1층 103,영등포구,37.5137083,126.8894739
1249,GS25문래에이스점,"서울 영등포구 경인로775, 112호 (문래동3가 55-20, 에이스하이테크시티)",영등포구,37.5143974,126.8993822
1250,GS25문래역점,"서울 영등포구 당산로26, 상가 103호(문래동3가 54, 문래자이아파트)",영등포구,37.5160898,126.8967856
1251,GS25문래영시티점,서울 영등포구 문래로28길25 (문래동3가 55-18),영등포구,37.517436,126.8997884
1252,GS25문래트리플렉스점,"서울 영등포구 문래북로116, 103호 (문래동3가 46, 트리플렉스)",영등포구,37.5193106,126.897995
1253,GS25문래한신점,서울 영등포구 영등포로12길7 (양평동1가 14-1),영등포구,37.5215137,126.8880086
1254,GS25문래현대점,"서울 영등포구 문래동3가83-3 4 대동오피스텔 107,108 호",영등포구,37.5198717,126.8905591
1255,GS25문정SK1호점,"서울 송파구 법원로128, 지하1층 B동 G115호 (문정동 642-3)",송파구,37.4941097,127.0106092
1256,GS25문정바른점,서울 송파구 새말로8길27(장지동 76-1),송파구,37.4802332,127.1269494
