,매장 이름,매장 주소,지역 시/군/구,위도,경도
0,GS252테크노파크점,"경기 부천시 오정구 석천로345, 300동 114호(삼정동 365)",부천시,37.5187422,126.7641038
1,GS25CJ덕양SUB점,"경기 고양시 일산동구 성현로615 (사리현동 151-1, CJ대한통운)",고양시일산동구,37.6950351,126.8496569
2,GS25GIDC광명역점,"경기 광명시 일직로43, GIDC광명역 G244호 (일직동 514)",광명시,37.4229034,126.8870783
3,GS25G광주거북이점,경기 광주시 경충대로2108 (중대동 290-3),광주시,37.4076279,127.2089896
4,GS25G내촌부자점,경기 포천시 내촌면 금강로3185 (신팔리 135-6),포천시,37.8444618,127.2766528
5,GS25G동탄샤인점,"경기 화성시 경기동로527, 1층 (장지동 861-6)",화성시,37.1497699,127.127576
6,GS25G스마트MTV점,경기 안산시 단원구 시화호수로841번길4 (성곡동 851-7),안산시단원구,37.2933333,126.5925
7,GS25G시화공단점,"경기 시흥시 공단1대로256, 102호(정왕1동 1367-2, 시화공단3다)",시흥시,37.3348906,126.7289823
8,GS25G시흥정다운점,"경기 시흥시 역전로318, 101호 (정왕동 876-420, SK정왕주유소)",시흥시,37.3535613,126.7377425
9,GS25G시흥하우로점,"경기 시흥시 하우로26-1, 1층 (대야동 57-5, S-OIL하우고개주유소)",시흥시,37.4583199,126.786084
10,GS25G옥길로점,경기 부천시 옥길로6 (옥길동 767-2),부천시,37.4689911,126.822613
11,GS25G은현IC점,경기 양주시 은현면하패리 250번지,양주시,37.8814019,127.0365107
12,GS25G정왕IC점,경기 시흥시 서해안로590(정왕동 1112-2),시흥시,37.3712312,126.738458
13,GS25G파주조인점,경기 파주시 창곡동길27 (야동동 151-12),파주시,37.7730451,126.7646942
14,GS25LGD파주A1동점,"경기 파주시 월롱면 엘지로245, A1동 2층 (덕은리 1239)",파주시,37.8133325,126.7612555
15,GS25LGD파주A2동점,"경기 파주시 월롱면 엘지로245, A2동 2층 (덕은리 1239)",파주시,37.8133325,126.7612555
16,GS25LGD파주A3동점,"경기 파주시 월롱면 엘지로245, A3동 (덕은리 1239)",파주시,37.8133325,126.7612555
17,GS25LGD파주R&D점,"경기 파주시 월롱면 엘지로245, RD동 15층 (덕은리 1239)",파주시,37.8133325,126.7612555
18,GS25LGD파주복지동A점,"경기 파주시 월롱면 엘씨디로201, 1층 매점 (덕은리 1253)",파주시,37.8090698,126.7607203
19,GS25LGD파주복지동B점,"경기 파주시 월롱면 엘씨디로231, G/H동 3층 (덕은리 1251)",파주시,37.81072959999999,126.7584269
20,GS25LG복지동점,"경기 평택시 진위면 엘지로222, M동 1층 (청호리 1)",평택시,37.1236179,127.0892413
21,GS25LG사랑점,경기 파주시 월롱면 엘씨디로241번길8-5 (덕은리 1248-3),파주시,37.8113444,126.7570925
22,GS25LG생산기술원점,"경기 평택시 진위면 엘지로222(청호리 19-1, LG디지털파크)",평택시,37.1236179,127.0892413
23,GS25LG연구동점,"경기 평택시 진위면 엘지로222, (R1동(연구동)) (청호리 19-1, 엘지전자(주))",평택시,37.1236179,127.0892413
24,GS25LG이노텍3점,경기 파주시 문산읍 월롱산단2길19(내포리 1636-4),파주시,37.8382531,126.7793216
25,GS25LG인화원점,"경기 이천시 마장면 지산로167-72, 1층 일부 (해월리 165-1)",이천시,37.21010460000001,127.3530124
26,GS25LS엠트론점,경기 안양시 동안구 엘에스로116번길39(호계1동 555-16),안양시동안구,37.3741986,126.9529272
27,GS25LS타워점,"경기 안양시 동안구 엘에스로127, 지하1층 (호계동 1026-6, LS타워)",안양시동안구,37.37235460000001,126.9471971
28,GS25NC소프트점,"경기 성남시 분당구 대왕판교로644번길12, 지하1층 (삼평동 668, (주)엔씨소프트판교RD센터)",성남시 분당구,37.4002236,127.1138336
29,GS25R구리5점,"경기 구리시 안골로105, 5층 (수택동 424-21, 은산빌딩)",구리시,37.5978346,127.1427925
30,GS25R럭키빌남단1점,"경기 과천시 경마공원대로107, 1층 (주암동 685, 럭키빌)",과천시,37.4448469,127.017142
31,GS25R럭키빌중앙2점,"경기 과천시 경마공원대로107, 2층 (주암동 685, 럭키빌)",과천시,37.4448469,127.017142
32,GS25R럭키빌중앙4점,"경기 과천시 경마공원대로107, 4층 (주암동 685, 럭키빌)",과천시,37.4448469,127.017142
33,GS25R분당3점,"경기 성남시 분당구 황새울로311번길37, , 마사회 분당지사 3층 (서현동 259-1)",성남시 분당구,37.3871559,127.1205123
34,GS25R분당4점,"경기 성남시 분당구 황새울로311번길37, 4층 (서현동 259-1, 마사회분당지사)",성남시 분당구,37.3871559,127.1205123
35,GS25R서울구남3점,"경기 과천시 경마공원대로107, 2층 (주암동 685, 해피빌)",과천시,37.4448469,127.017142
36,GS25R서울구남4점,경기 과천시 주암동렛츠런파크서울 해피빌 구관 4층 남단,과천시,37.4448469,127.017142
37,GS25R서울구북2점,"경기 과천시 경마공원대로107, 2층 (주암동 685, 렛츠런파크해피빌)",과천시,37.4448469,127.017142
38,GS25R서울구북3점,"경기 과천시 경마공원대로107, 렛츠런파크서울 해피빌 3층 북단 (주암동 685)",과천시,37.4448469,127.017142
39,GS25R서울구북4점,경기 과천시 주암동렛츠런파크서울 해피빌 구관 4층 북단,과천시,37.4448469,127.017142
40,GS25R안산9점,"경기 안산시 단원구 삼일로310, 9층 GS25 R안산9 (선부동 1077)",안산시단원구,37.3337828,126.8120916
41,GS25R의정부5점,"경기 의정부시 시민로45, 5층 (가능동 754-21)",의정부시,37.7385545,127.0400987
42,GS25R일산마사4층점,"경기 고양시 일산동구 중앙로1275번길60-19, 4층 일부 (장항동 756-4)",고양시일산동구,37.6595584,126.7684166
43,GS25R일산마사5층점,"경기 고양시 일산동구 중앙로1275번길60-19, 5층 일부 (장항동 756-4)",고양시일산동구,37.6595584,126.7684166
44,GS25R일산마사6층점,"경기 고양시 일산동구 중앙로1275번길60-19, 6층 일부 (장항동 756-4, 로데오 메탈릭타워 II)",고양시일산동구,37.6595584,126.7684166
45,GS25S8남한산성입구역점,"경기 성남시 수정구 산성대로지하 445, 8호선 지하철 역사 내 (단대동)",성남시 수정구,37.4518882,127.1572663
46,GS25S8단대오거리역점,"경기 성남시 수정구 산성대로지하 365, 단대오거리역 지하 GS25 (신흥동 2467)",성남시 수정구,37.44504999999999,127.156709
47,GS25S8산성역점,"경기 성남시 수정구 수정로지하 365, 8호선 산성역 역사 내 (신흥동)",성남시 수정구,37.457001,127.150027
48,GS25S8수진역점,"경기 성남시 수정구 산성대로203, 8호선 수진역 역사 내 (수진동)",성남시 수정구,37.4376051,127.1409692
49,GS25S8신흥역점,"경기 성남시 수정구 산성대로지하 204-2, 8호선 신흥역 역사 내 (신흥동)",성남시 수정구,37.440956,127.147509
50,GS25SK반월주유소점,"경기 화성시 동탄원천로447, 1동 (반월동 686-2)",화성시,37.2252474,127.0519889
51,GS25SK항만주유소점,"경기 평택시 포승읍 서동대로524, SK항만주유소 (신영리 413-11)",평택시,36.9446397,126.8761378
52,GS25S광교역점,"경기 수원시 영통구 대학로55, 1층 광교역사 내 상가 (이의동 740-1, 지상)",수원시 영통구,37.3035297,127.0452024
53,GS25S광교중앙역점,경기 수원시 영통구 도청로지하 45 (이의동 177-18),수원시 영통구,37.2888113,127.0519115
54,GS25S광명사거리역점,"경기 광명시 오리로지하 980, 7호선 광명사거리역 GS25S광명사거리역점 (광명동 158-211)",광명시,37.478895,126.856739
55,GS25S까치울역점,"경기 부천시 길주로지하 626, 까치울역 GS25 (춘의동 3-1)",부천시,37.5060988,126.8011495
56,GS25S동천역점,"경기 용인시 수지구 신수로지하 760, 내 상가 (동천동 323-4, 동천역사)",용인시수지구,37.3343261,127.1022973
57,GS25S부천시청역점,"경기 부천시 원미구 길주로지하 202, 중동 7호선부천시청역내 (중동 1243, 부천시청역)",부천시,37.5022203,126.7685834
58,GS25S부천운동장역점,"경기 부천시 원미구 길주로지하 502, 지하층 (춘의동 15-1, 부천종합운동장)",부천시,37.5050427,126.7960011
59,GS25S상동역점,"경기 부천시 원미구 길주로지하 104, 상동 7호선상동역내 (상동 633, 상동역)",부천시,37.505814,126.753163
60,GS25S상현역점,"경기 용인시 수지구 광교중앙로지하 312, 상현역사 내 상가 (상현동 502-10)",용인시수지구,37.2980217,127.0696819
61,GS25S성복역점,"경기 용인시 수지구 수지로지하 134, 내 상가 (성복동 720-6, 성복역사)",용인시수지구,37.3132573,127.0805292
62,GS25S수지구청역점,경기 용인시 수지구 풍덕천동1045 수지구청역사 내 상가,용인시수지구,37.3204589,127.0911689
63,GS25S신중동역점,"경기 부천시 원미구 길주로지하 314, 중동 7호선신중동역내 (중1동 1140-6, 신중동역)",부천시,37.501902,126.7762146
64,GS25S정자역점,"경기 성남시 분당구 성남대로지하 333, 신분당선 정자역 지하1층 GS25 S정자역점 (정자동 95-1)",성남시 분당구,37.3661468,127.1080524
65,GS25S철산역점,경기 광명시 철산로지하 13 (철산3동 526),광명시,37.4760554,126.8679003
66,GS25S춘의역점,"경기 부천시 원미구 길주로지하 406, 춘의동 7호선춘의역사내 (춘의동 145, 춘의역)",부천시,37.5056224,126.8135825
67,GS25S판교역점,"경기 성남시 분당구 판교역로지하 160, 지하1층 GS25 S판교역점 (백현동 19-2)",성남시 분당구,37.3947248,127.110767
68,GS25가남삼거리점,"경기 여주시 가남읍 설가로869, 외 1필지 (태평리 476)",여주시,37.1924577,127.5295934
69,GS25가남행복점,"경기 여주시 가남읍 경충대로1472-33, 외 1필지 상가9호10호11호12호 (신해리 620-17)",여주시,37.218528,127.5356305
70,GS25가능로드점,경기 의정부시 호국로1069 (가능동 585-15),의정부시,37.7425731,127.02278
71,GS25가능문화점,"경기 의정부시 가능로118, 1층 (의정부동 417)",의정부시,37.7467019,127.0442509
72,GS25가능빌리지점,"경기 의정부시 태평로214번길19-18, 1층 (가능동 15-279)",의정부시,37.7511245,127.0457498
73,GS25가능우미점,경기 의정부시 흥선로41번길14 (가능동 718),의정부시,37.7452001,127.0327873
74,GS25가능타운점,"경기 의정부시 의정로140, 1층 (가능2동 737)",의정부시,37.7453091,127.0347613
75,GS25가능행복점,경기 의정부시 둔야로62-1(가능2동 749-17),의정부시,37.7414114,127.0397396
76,GS25가산정교점,"경기 포천시 가산면 정금로188, GS25가산정교점 (정교리 240-5)",포천시,37.814214,127.1810198
77,GS25가운주공점,"경기 남양주시 가운로2길14, 상가동 104호(가운동 671, 휴먼시아)",남양주시,37.6035419,127.1582086
78,GS25가장산단점,경기 오산시 가장산업동로32 (가장동 375-1),오산시,37.162475,127.0389766
79,GS25가좌대우점,"경기 고양시 일산서구 가좌3로45, 상가동 101,102호 (가좌동 1089, 가좌마을)",고양시일산서구,37.6869848,126.7173602
80,GS25가좌벽산점,"경기 고양시 일산서구 가좌1로8, 상가 101~2(가좌동 1087, 가좌마을)",고양시일산서구,37.6910041,126.7206709
81,GS25가좌양우점,경기 고양시 일산서구 가좌4로13 (가좌동 1090),고양시일산서구,37.6850422,126.7174356
82,GS25가좌으뜸점,"경기 고양시 일산서구 가좌2로20, 상가동 1층 112호 (가좌동 1086, 가좌마을6단지)",고양시일산서구,37.6885146,126.7225821
83,GS25가천대가천관점,"경기 성남시 수정구 성남대로1342, 가천관 2층 (복정동 620-2, 가천대학교)",성남시 수정구,37.4525268,127.1326255
84,GS25가천대역점,"경기 성남시 수정구 성남대로1330, 1층 103호 (태평1동 5113-7, 일성오퍼스원)",성남시 수정구,37.4485072,127.1271159
85,GS25가평군청점,경기 가평군 가평읍 석봉로163 (읍내리 495-32),가평군,37.8296696,127.5106033
86,GS25가평남이섬점,"경기 가평군 가평읍 북한강변로1049-1, 1층 (달전리 118-2)",가평군,37.8062157,127.5248525
87,GS25가평다운점,경기 가평군 상면 수목원로112 (행현리 323-3),가평군,37.7677568,127.3645613
88,GS25가평달전로점,경기 가평군 가평읍 달전로58 (달전리 334-15),가평군,37.8135931,127.5194593
89,GS25가평대로점,"경기 가평군 가평읍 가화로160, A동 101호 (읍내리 626-13)",가평군,37.8335985,127.5117725
90,GS25가평대성점,"경기 가평군 청평면 경춘로254, 2층 (대성리 344-19, 토종순대국)",가평군,37.6978949,127.3847396
91,GS25가평더베이점,경기 가평군 가평읍 북한강변로190 (금대리 554-1),가평군,37.748653,127.5286126
92,GS25가평레일점,경기 가평군 가평읍 가화로98 (읍내리 475-24),가평군,37.8285572,127.5143923
93,GS25가평맹호점,경기 가평군 조종면 운악청계로127 (현리 92-7),가평군,37.8315454,127.3449512
94,GS25가평북면점,경기 가평군 북면 화악산로4 (목동리 840-1),가평군,37.8856566,127.5494853
95,GS25가평산유점,"경기 가평군 가평읍 호반로1700, 1동 (산유리 99-3)",가평군,37.7466945,127.5125221
96,GS25가평상천점,"경기 가평군 청평면 경춘로1151, 1동 (상천리 1156-4)",가평군,37.7618622,127.44006
97,GS25가평설악점,경기 가평군 설악면 신천중앙로129(신천리 458-4),가평군,37.6778018,127.4895424
98,GS25가평신상리점,경기 가평군 하면신상리 131-1번지,가평군,37.8463837,127.3554711
99,GS25가평역점,경기 가평군 가평읍 문화로13-39 (달전리 591-1),가평군,37.8097417,127.5289525
100,GS25가평자라섬점,"경기 가평군 가평읍 자라섬로60, 1층 (대곡리 27-14, 자라섬캠핑장수상클럽하우스)",가평군,37.8198192,127.5206593
101,GS25가평조종점,경기 가평군 조종면현리 410-14번지,가평군,37.8169643,127.3485317
102,GS25가평중앙점,"경기 가평군 가평읍 석봉로209, 105호(읍내리 637-6, 준수빌딩)",가평군,37.8337591,127.5092448
103,GS25가평창의점,"경기 가평군 설악면 한서로150, 1층 (창의리 115-4)",가평군,37.6700957,127.506849
104,GS25가평코아루점,경기 가평군 가평읍 석봉로191번길18 (읍내리 583-1),가평군,37.8319228,127.5079369
105,GS25가평파란채점,경기 가평군 가평읍 가화로225 (읍내리 767),가평군,37.8360172,127.5138322
106,GS25가평현리점,경기 가평군 하면 현창로38번길10(현리 264-32),가평군,37.8189535,127.3489822
107,GS25가현로드점,"경기 김포시 통진읍 율마로235, 가동 1층 (가현리 430-5)",김포시,37.67207260000001,126.5983061
108,GS25갈매6단지점,"경기 구리시 갈매중앙로31, 상가동 1층 102호 (갈매동 631, 갈매6단지)",구리시,36.9951787,127.0867871
109,GS25갈매사랑점,"경기 구리시 갈매중앙로185-4, 1층 109호,110호,111호 (갈매동 518-2)",구리시,37.6307959,127.1185593
110,GS25갈매신성점,"경기 구리시 산마루로24, 106호 (갈매동 320-18, 신성타워)",구리시,37.6311571,127.1166898
111,GS25갈매주공점,"경기 구리시 갈매중앙로132, 상가동 1층 108호 (갈매동 77, LH이스트힐)",구리시,37.6005776,126.8733181
112,GS25갈매중앙스타점,"경기 구리시 산마루로11-12, 113호 (갈매동 281)",구리시,37.6307959,127.1185593
113,GS25갈매퍼스트점,경기 구리시 갈매순환로96 (갈매동 658),구리시,37.6371043,127.124724
114,GS25갈매푸르지오점,"경기 구리시 갈매중앙로16, 상가동 106호 (갈매동 산101-1, 대우푸르지오아파트)",구리시,37.6259881,127.1146789
115,GS25갈매한덕점,경기 구리시 갈매동601-2번지 한덕프라자 107호,구리시,37.6307959,127.1185593
116,GS25갈매행운점,경기 구리시 갈매순환로204번길8-34 (갈매동 534-2),구리시,37.6396423,127.1187614
117,GS25갈산빌리지점,"경기 이천시 갈산로114, 1동 103호 (갈산동 219-10)",이천시,37.2872402,127.4657006
118,GS25갈산행운점,"경기 이천시 구만리로348, 1층 (갈산동 46-1)",이천시,37.2815063,127.4688683
119,GS25감북서하남로점,경기 하남시 서하남로47번길48 (감북동 398-6),하남시,37.5176196,127.1515186
120,GS25감일대박점,"경기 하남시 감일백제로120, 101호 (감이동 458, 힐스테이트포웰시티)",하남시,37.5097412,127.1600266
121,GS25감일스퀘어점,"경기 하남시 감일백제로177, JS 스퀘어 상가 101호 (감이동 511-2)",하남시,37.5055984,127.1546406
122,GS25감일한라점,"경기 하남시 감일백제로83번길25, 104호,105호 (감이동 524-3)",하남시,37.5125349,127.1603369
123,GS25감일행복1호점,"경기 하남시 감일순환로140, 하남감일스윗시티 7단지 상가동 101호, 102호 (감일동 524)",하남시,37.5120824,127.1590548
124,GS25강남대점,"경기 용인시 기흥구 강남로9, 101호 (구갈동 579-2, 태평양프라자)",용인시기흥구,37.2714995,127.1267416
125,GS25강남대행복점,"경기 용인시 기흥구 강남서로68번길3-1, 102호(구갈동 553-4, 남강빌리지)",용인시기흥구,37.276771,127.1296824
126,GS25강선15단지점,"경기 고양시 일산서구 강선로32, 천사어린이집 (주엽동 84)",고양시일산서구,37.6668214,126.7645203
127,GS25강선마을점,"경기 고양시 일산서구 대산로123, 101호 (주엽동 30-2, 현대프라자)",고양시일산서구,37.6742008,126.7636086
128,GS25거모사랑점,"경기 시흥시 도일로112번길6, 1층(거모동 1658-10)",시흥시,37.34035799999999,126.784435
129,GS25거모행복점,"경기 시흥시 도일로135번길16-1, D동 102호(거모동 1755-1, 진아빌라)",시흥시,37.3433147,126.7835974
130,GS25거북섬스퀘어점,"경기 시흥시 거북섬둘레길10, 153호, 154호 (정왕동 2718-1, 메가스퀘어)",시흥시,37.3226459,126.6820437
131,GS25건건E편한점,"경기 안산시 상록구 건건7길16, 1층 (건건동 592-1)",안산시상록구,37.3088928,126.9056265
132,GS25걸포오스타점,"경기 김포시 걸포1로11, 상가동 제지하1층 104호 (걸포동 1558)",김포시,37.63470239999999,126.7039208
133,GS25걸포자이광장점,"경기 김포시 걸포2로83, 상가동 137호, 138호 (걸포동 264-4, 한강메트로자이1단지)",김포시,37.6327236,126.7019352
134,GS25걸포자이메디점,"경기 김포시 걸포2로21, 1층 109호 (걸포동 335-1)",김포시,37.6323735,126.6981211
135,GS25걸포자이에듀점,"경기 김포시 걸포2로49, 103호 (걸포동 260)",김포시,37.6383847,126.7014458
136,GS25걸포자이타운점,"경기 김포시 걸포2로83, 상가동 106호,107호 (걸포동 264-4, 한강메트로자이1단지)",김포시,37.6327236,126.7019352
137,GS25검산점,경기 파주시 평화로346(검산동 279-1),파주시,37.7727927,126.7443988
138,GS25검준산업점,"경기 양주시 남면 검준길28, 가동1층1,2,3,4호(상수리 475-1)",양주시,37.8649937,126.994044
139,GS25경기광주도평점,"경기 광주시 초월읍 현산로79, 1층 (도평리 222-20)",광주시,37.3946756,127.2909258
140,GS25경기대점,경기 수원시 장안구 광교산로140번길3(연무동 6-4),수원시 장안구,37.29992319999999,127.0305192
141,GS25경기대후문점,"경기 수원시 영통구 대학1로8, 1층 (이의동 1276-7)",수원시 영통구,37.298421,127.0583013
142,GS25경기도청역점,"경기 수원시 영통구 도청로65 (이의동 1344, 자연앤힐스테이트상가1동지하2층117호)",수원시 영통구,37.2918893,127.0558462
143,GS25경민대정문점,경기 의정부시 호국로1101번길41(가능3동 566-27),의정부시,37.7447664,127.0261869
144,GS25경복대남양주점,경기 남양주시 진접읍 금곡리 383경복대창조관1004~5,남양주시,37.7348657,127.2109861
145,GS25경복대점,경기 포천시 신북면 신평로154(신평리 131),포천시,37.9473953,127.2234987
146,GS25경안안길점,경기 광주시 경안안길25 (경안동 95-4),광주시,37.4132306,127.2537319
147,GS25경의교차로점,"경기 의정부시 평화로449, 동맥집 (의정부동 369-7)",의정부시,37.7321045,127.0476911
148,GS25경의초교점,"경기 의정부시 경의로145, 1층 (의정부동 365-59)",의정부시,37.7332736,127.0518851
149,GS25경춘대성점,경기 가평군 청평면 경춘로30 (대성리 621-4),가평군,37.6781722,127.3770382
150,GS25경희공학관점,"경기 용인시 기흥구 덕영대로1732, 공학관 (서천동 1)",용인시기흥구,37.2452058,127.0784847
151,GS25경희대기숙사점,"경기 용인시 기흥구 덕영대로1732, 제2기숙사(서천동 1, 경희대학교)",용인시기흥구,37.2437572,127.0768381
152,GS25경희대우정원점,"경기 용인시 기흥구 덕영대로1732, 105호 (서천동 1, 경희대학교우정원)",용인시기흥구,37.2459924,127.0769689
153,GS25경희마크점,"경기 용인시 기흥구 서천로127번길11-5, 112호 (서천동 812, 경희마크 329)",용인시기흥구,37.2466374,127.0775216
154,GS25경희예술도서위성점,"경기 용인시 기흥구 덕영대로1732 (서천동 1, 중앙도서관)",용인시기흥구,37.2452058,127.0784847
155,GS25경희예술도서점,"경기 용인시 기흥구 덕영대로1732 (서천동 1, 예술디자인대학)",용인시기흥구,37.2452058,127.0784847
156,GS25경희전자국제위성점,"경기 용인시 기흥구 덕영대로1732, 극제대학관 (서천동 1)",용인시기흥구,37.2452058,127.0784847
157,GS25경희전자국제점,"경기 용인시 기흥구 덕영대로1732, 전자정보대학관 (서천동 1)",용인시기흥구,37.2452058,127.0784847
158,GS25경희체육경영위성점,"경기 용인시 기흥구 덕영대로1732, 국제.경영대학관 (서천동 1)",용인시기흥구,37.2452058,127.0784847
159,GS25경희체육경영점,"경기 용인시 기흥구 덕영대로1732, 체육대학관 (서천동 1)",용인시기흥구,37.2452058,127.0784847
160,GS25계원예대점,"경기 의왕시 계원대학로31, 101호(내손1동 739-5, 미원파크빌)",의왕시,37.3798025,126.9750707
161,GS25고강고리울점,"경기 부천시 고리울로39번길4, 1층 102호 (고강동 390-5, 스카이포인트아파트)",부천시,37.5274984,126.8203138
162,GS25고강엘파크점,"경기 부천시 역곡로482번길37, 코너호 (고강동 377-5)",부천시,37.5257178,126.8212891
163,GS25고강우영점,"경기 부천시 오정구 고리울로52번길49, 102,103호(고강본동 400)",부천시,37.5250661,126.8210806
164,GS25고강중앙점,"경기 부천시 오정구 수주로19, 1층(고강본동 415-5)",부천시,37.52531030000001,126.8249753
165,GS25고강타운점,"경기 부천시 오정구 고강로154번길67-5, 1층 (고강본동 313-6, 그린빌라)",부천시,37.5289177,126.8231323
166,GS25고강태백점,경기 부천시 역곡로504번길31 (고강동 365-4),부천시,37.5294106,126.8178998
167,GS25고강파크점,"경기 부천시 성지로42번길4, 101호 (고강동 296)",부천시,37.5226297,126.811459
168,GS25고강행복점,경기 부천시 고강로140번길16 (고강동 354-15),부천시,37.53063059999999,126.8195279
169,GS25고대안산병원점,"경기 안산시 단원구 적금로123, 지하1층 (고잔동 516)",안산시단원구,37.3191333,126.8252651
170,GS25고덕갈평점,"경기 평택시 고덕면 고덕갈평9길84, 1층 코너 (여염리 4172-4)",평택시,37.034624,127.0505186
171,GS25고덕골든센터점,경기 평택시 고덕여염5길119-5 (고덕동 2262-1),평택시,37.043909,127.013414
172,GS25고덕골든점,"경기 평택시 고덕면 고덕여염5길194, 1층 코너 (여염리 4590-5, 골든빌31)",평택시,37.034624,127.0505186
173,GS25고덕그랜드점,"경기 평택시 고덕면 고덕갈평5길32, 108호 (여염리 4229-1, 그랜드메디컬타워)",평택시,37.02863019999999,127.0540986
174,GS25고덕대광점,"경기 평택시 함박산8길19, GS25고덕대광점 (고덕동 2661-9)",평택시,36.9958333,126.8202778
175,GS25고덕메디컬점,"경기 평택시 고덕중앙2로39, 113호,114호 (고덕동 2613-1)",평택시,36.9915696,127.0913563
176,GS25고덕미라클점,경기 평택시 고덕국제4길48 (고덕동 1936-7),평택시,37.043909,127.013414
177,GS25고덕미래점,"경기 평택시 고덕여염12길142, 1층 상가 (고덕동 2074-6)",평택시,37.043909,127.013414
178,GS25고덕비즈점,"경기 평택시 고덕면 도시지원1길16, 121호,122호 (해창리 1274-3)",평택시,37.0302345,127.0173478
179,GS25고덕빌리지점,"경기 평택시 고덕면 고덕여염10길72, 102호,103호 (여염리 4486-2)",평택시,37.0278699,127.0497282
180,GS25고덕삼성본점,"경기 평택시 고덕여염8길71, 1층 (고덕동 2169-1)",평택시,37.043909,127.013414
181,GS25고덕센트럴점,"경기 평택시 고덕면 고덕여염12길183, 101호 (여염리 4427-1)",평택시,37.0298216,127.0472413
182,GS25고덕센트레빌점,"경기 평택시 고덕면 고덕갈평3로50, 상가 101호 (여염리 4198-1, 평택고덕센트레빌엔에이치에프3단지)",평택시,37.0298216,127.0472413
183,GS25고덕신도시점,"경기 평택시 고덕중앙로200-5, 117호 118호 (고덕동 1977-1)",평택시,36.99105,127.1049272
184,GS25고덕안재홍로점,경기 평택시 고덕면 안재홍로71 (두릉리 164-2),평택시,37.0635144,127.0227605
185,GS25고덕에이스점,"경기 평택시 고덕면 고덕중앙로290, 1층 143호,144호 (여염리 4391-2)",평택시,37.0307977,127.0426793
186,GS25고덕우성점,"경기 평택시 고덕면 고덕중앙로218, 110호 (여염리 4318-1, 우성메디컬)",평택시,37.0278542,127.0487899
187,GS25고덕원희캐슬점,"경기 평택시 고덕면 고덕중앙로320, 1층 104호 (여염리 4388-1, 원희캐슬고덕지식산업센터)",평택시,37.034624,127.0505186
188,GS25고덕자이점,"경기 평택시 고덕면 고덕국제대로152, 상가동 102,103호 (여염리 4313-2, 고덕신도시자연앤자이)",평택시,37.034624,127.0505186
189,GS25고덕제일점,"경기 평택시 고덕중앙로200-20, 1층 105호 (고덕동 1978-2)",평택시,36.99105,127.1049272
190,GS25고덕중앙점,"경기 평택시 고덕면 함박산7길29, GS25고덕중앙점 (좌교리)",평택시,37.0422146,127.0176543
191,GS25고덕타운점,"경기 평택시 고덕면 고덕여염11길113, 1층 101호 (여염리 4409-10)",평택시,37.0298216,127.0472413
192,GS25고덕태평점,"경기 평택시 고덕면 효덕새싹길31, 좌측 2칸 (궁리 72-1)",평택시,37.0177928,127.0347907
193,GS25고덕테헤란점,"경기 평택시 고덕면 고덕여염9길22, 116호 (여염리 4507-3, 고덕헤리움비즈타워2차)",평택시,37.0297369,127.0561597
194,GS25고덕파라곤점,"경기 평택시 고덕국제8로91, 제1층 제B 110호 (고덕동, 고덕국제신도시파라곤에듀포레)",평택시,37.043909,127.013414
195,GS25고덕풍경채점,"경기 평택시 고덕면 고덕국제대로179, 상가동 110호 (여염리 4242-2, 고덕제일풍경채)",평택시,37.0278542,127.0487899
196,GS25고덕하늘채점,"경기 평택시 고덕면 효덕새싹길55, 단지내상가 B동 103호,104호,111호 (궁리)",평택시,37.0195689,127.0380394
197,GS25고덕행복점,"경기 평택시 고덕면 고덕여염6길12, 101호 (여염리 101)",평택시,37.03944389999999,127.0587823
198,GS25고덕호반정문점,"경기 평택시 고덕면 고덕국제1로50, 835동 104호 (좌교리 0, 호반써밋고덕신도시)",평택시,37.043909,127.013414
199,GS25고덕호수공원점,"경기 평택시 함박산4길9, GS25고덕호수공원점 (고덕동)",평택시,37.0422146,127.0176543
200,GS25고덕희망점,"경기 평택시 고덕국제3길61-2, 1층 (고덕동 1960-6)",평택시,37.043909,127.013414
201,GS25고등오거리점,경기 수원시 팔달구 고화로62번길1(고등동 29-16),수원시 팔달구,37.2748561,127.0064119
202,GS25고등으뜸점,"경기 성남시 수정구 청계산로4길17-13, 1층 (고등동 612-9)",성남시 수정구,37.4305196,127.0879344
203,GS25고등중앙점,"경기 수원시 팔달구 고매로1, 102호 (고등동 116-1)",수원시 팔달구,37.2698176,127.0041927
204,GS25고등타운점,"경기 수원시 팔달구 고등로8, 수원고등C1아파트 상가 102호 (고등동 215-53)",수원시 팔달구,37.2731019,127.002462
205,GS25고등푸르지오점,"경기 수원시 팔달구 고등로15, 55호 (고등동 156-117)",수원시 팔달구,37.2737069,126.9989874
206,GS25고등행복점,"경기 성남시 수정구 고등로1길6-10, 1층 (고등동 575-4)",성남시 수정구,37.2728653,126.9970739
207,GS25고림내안애점,"경기 용인시 처인구 경안천로112, 상가동 101호 (고림동 1005, 고림지구양우내안애에듀파크)",용인시처인구,37.2448753,127.2144711
208,GS25고림빌리지점,"경기 용인시 처인구 임원로26-1, 지층 102호 (고림동 193, 대림르첸시아)",용인시처인구,37.2516906,127.230912
209,GS25고모리호수점,경기 포천시 소흘읍 죽엽산로448 (고모리 225-5),포천시,37.7943833,127.1654391
210,GS25고봉로장고개점,"경기 고양시 일산동구 고봉로770번길5, 나동, 1층 (설문동 706-31)",고양시일산동구,37.7182196,126.7951528
211,GS25고산로드점,경기 의정부시 문충로332 (민락동 922-1),의정부시,37.7492362,127.1077704
212,GS25고산쌍용점,"경기 의정부시 서광로186, 상가동 (산곡동 0, 쌍용더플래티넘아파트)",의정부시,33.4996899,126.5163454
213,GS25고산행복,"경기 의정부시 서광로169, 상가동 (산곡동 676, 대광로제비앙더퍼스트아파트)",의정부시,37.7183075,127.1073347
214,GS25고색거산점,"경기 수원시 권선구 고현로5번길25, 상가동 101호 (고색동 306-1, 거산아파트)",수원시 권선구,37.2479038,126.9859978
215,GS25고색대성점,경기 수원시 권선구 매송고색로711번길10(고색동 890-130),수원시 권선구,37.2518023,126.9820522
216,GS25고색리치아노점,"경기 수원시 권선구 오목천로152번길60, 109,110호 (고색동 948)",수원시 권선구,37.2431848,126.9777204
217,GS25고색밸리점,"경기 수원시 권선구 산업로156번길142-10, A동 117호 (고색동 1152, 수원벤처밸리2)",수원시 권선구,37.2380786,126.9732509
218,GS25고색산단점,"경기 수원시 권선구 오목천로152번길68, 117호(고색동 950, 골든프라자)",수원시 권선구,37.2416106,126.9778185
219,GS25고색타운점,경기 수원시 권선구 고색로14번길29 (고색동 397-33),수원시 권선구,37.2475274,126.9793188
220,GS25고암두언점,경기 양주시 고암길40 (고암동 128-3),양주시,37.8316095,127.068236
221,GS25고암휴먼시아점,"경기 양주시 고암길219, 상가동 101호 (고암동 583, 하늘빛마을주공7단지)",양주시,37.8335866,127.0737527
222,GS25고양고봉점,"경기 고양시 덕양구 고양대로1994-1, 1층 (동산동 47-104)",고양시덕양구,37.6466316,126.9003557
223,GS25고양그랜드점,"경기 고양시 일산동구 운정로214, 1층 (성석동 1104-2)",고양시일산동구,37.7161458,126.7858806
224,GS25고양대로점,경기 고양시 덕양구 고양대로1215 (주교동 527-7),고양시덕양구,37.6631239,126.8236937
225,GS25고양대화점,"경기 고양시 일산서구 대화로81, 1층 (대화동 1484-4)",고양시일산서구,37.6686662,126.7298106
226,GS25고양문봉길점,"경기 고양시 일산동구 문봉길43, 1층 (문봉동 231-4)",고양시일산동구,37.7040647,126.8182874
227,GS25고양문봉점,경기 고양시 일산동구 문봉길62번길32-1 (문봉동 217),고양시일산동구,37.7067128,126.8167654
228,GS25고양밤가시점,"경기 고양시 일산동구 산두로189, 1층 (정발산동 1254-5)",고양시일산동구,37.674146,126.7825945
229,GS25고양백마점,"경기 고양시 일산동구 경의로329, 백마마을상가동 120호, 121호일부 (마두동 717)",고양시일산동구,37.6589601,126.7912326
230,GS25고양본점,경기 고양시 덕양구 혜음로27 (고양동 226),고양시덕양구,37.7029983,126.9017325
231,GS25고양빌리지점,"경기 고양시 덕양구 읍내로85, 1층 (고양동 373)",고양시덕양구,37.7050844,126.8982826
232,GS25고양사랑점,경기 고양시 덕양구 지도로92번길13-2 (토당동 848-15),고양시덕양구,37.6255252,126.8249231
233,GS25고양산두로점,"경기 고양시 일산동구 산두로146, 1층 (정발산동 1273-13)",고양시일산동구,37.6705192,126.7851044
234,GS25고양삼익점,경기 고양시 일산서구 원일로21번길43 (일산동 2120),고양시일산서구,37.6891971,126.7637043
235,GS25고양상지석길점,"경기 고양시 일산동구 고봉로795, 외6필지 101호 (설문동 703)",고양시일산동구,37.72584519999999,126.7951159
236,GS25고양성석점,경기 고양시 일산동구 성현로201 (성석동 491-2),고양시일산동구,37.7089027,126.8083984
237,GS25고양센터점,"경기 고양시 일산동구 사리현로101-8, 3동 (식사동 2-14)",고양시일산동구,37.688539,126.821915
238,GS25고양원당로점,"경기 고양시 덕양구 원당로69번길14, 1층 일부 (주교동 583-7)",고양시덕양구,37.65926899999999,126.8344567
239,GS25고양원당점,경기 고양시 덕양구 호국로779번길29 (주교동 611),고양시덕양구,37.656836,126.8339802
240,GS25고양웨스턴점,"경기 고양시 일산동구 정발산로42번길60, 853, 107호 (장항동 853-1, 웨스턴)",고양시일산동구,37.6561746,126.7739886
241,GS25고양제일점,경기 고양시 덕양구 통일로1154번길15-19 (내유동 427-1),고양시덕양구,37.7179664,126.8501939
242,GS25고양주교점,"경기 고양시 덕양구 마상로113번길68, 1층 3호(주교동 568)",고양시덕양구,37.6629078,126.8383497
243,GS25고양지축점,"경기 고양시 덕양구 지축4로33, GS25 고양지축점 (지축동)",고양시덕양구,37.64811400000001,126.913746
244,GS25고양하이브점,"경기 고양시 덕양구 의장로114, 108,109,110호 (도내동)",고양시덕양구,37.6221547,126.8552837
245,GS25고양현천점,경기 고양시 덕양구 대덕로121 (현천동 100),고양시덕양구,37.5927364,126.8679977
246,GS25고양휴게소1호점,"경기 고양시 덕양구 성사동95-1 일대, 서울문산간 고속도로 휴게소 서울방향",고양시덕양구,37.63106399999999,126.8503786
247,GS25고양휴게소2호점,"경기 고양시 덕양구 성사동95-1일대, 서울문산간 고속도로 휴게소 문산방향",고양시덕양구,37.6306151,126.8522755
248,GS25고읍세란점,경기 양주시 고읍로35번길29-21 (고읍동 446-7),양주시,37.8005271,127.0818305
249,GS25고읍센터점,경기 양주시 고읍남로7 (광사동 656-2),양주시,37.7964343,127.0807377
250,GS25고읍타운점,"경기 양주시 고읍남로191번길70-4, 1층 (광사동 670-19)",양주시,37.7916207,127.0806884
251,GS25고읍파스텔점,"경기 양주시 고읍남로20-6, 104호(광사동 654-5, 양주파스텔시티)",양주시,37.79511240000001,127.0791111
252,GS25고읍한내들점,"경기 양주시 고읍북로28-8, 103,104호 (만송동 697, 은빛마을유승한내들)",양주시,37.7970041,127.0830959
253,GS25고읍행복점,"경기 양주시 고읍남로94, 상가동 101,102호 (광사동 717, 양주고읍LH13단지아파트)",양주시,37.79327230000001,127.0809801
254,GS25고잔21세기점,"경기 안산시 단원구 보화로49, 101호 (고잔동 618-10)",안산시단원구,37.3304368,126.8321528
255,GS25고잔광덕점,"경기 안산시 단원구 광덕동로39, 113,114호 (고잔동 775-4)",안산시단원구,37.3078825,126.8320742
256,GS25고잔로데오점,"경기 안산시 단원구 광덕2로164-6, 105호 (고잔동 716-2, 현대프라자)",안산시단원구,37.3091774,126.8283394
257,GS25고잔마이빌점,"경기 안산시 단원구 고잔로23-12, 116호, 117호 (고잔동 523-6)",안산시단원구,37.3204619,126.8293015
258,GS25고잔베스트점,"경기 안산시 단원구 광덕동로95, 107호 (고잔동 727-3, 궁전타워)",안산시단원구,37.3129328,126.8326019
259,GS25고잔보배점,"경기 안산시 단원구 보배2길18, 101, 102호 (고잔동 506-4)",안산시단원구,37.3305946,126.8288758
260,GS25고잔사랑점,"경기 안산시 단원구 다리간3길17-2, 1층 (고잔동 687-6)",안산시단원구,37.3139227,126.8240138
261,GS25고잔스카이점,"경기 안산시 단원구 당곡로11, 1층 117호 (고잔동 530-2, 거풍스카이팰리스)",안산시단원구,37.3182754,126.8329908
262,GS25고잔일번지점,"경기 안산시 단원구 광덕대로146, 103호 (고잔동 772, 일번지프라자)",안산시단원구,37.3093906,126.8306724
263,GS25고잔주공점,"경기 안산시 단원구 광덕2로74, 상가동 104,105호 (초지동 730, 그린빌주공12단지아파트)",안산시단원구,37.3094536,126.8184228
264,GS25고잔큐브시티점,"경기 안산시 단원구 원고잔로17, 101호, 102호 (GS25 고잔큐브시티점) (고잔동 520)",안산시단원구,37.3190932,126.8274905
265,GS25고잔타워점,"경기 안산시 단원구 광덕대로187, 111호 (고잔동 706-3, 장은타워)",안산시단원구,37.3133409,126.8292967
266,GS25고잔푸른마을점,"경기 안산시 상록구 광덕4로460, 상가 101호 (사1동 1536, 푸른마을5단지)",안산시상록구,37.30335,126.855577
267,GS25고잔화랑점,"경기 안산시 단원구 평화길19, 1층 (고잔동 659-1)",안산시단원구,37.32837809999999,126.8188306
268,GS25고촌캐슬점,"경기 김포시 고촌읍 김포대로332, 상가 105호, 106호 (신곡리 532-124)",김포시,37.6007053,126.7715233
269,GS25고촌타운점,경기 김포시 고촌읍 장차로5번길4 (신곡리 1063-12),김포시,37.6028287,126.7700252
270,GS25고촌현대점,"경기 김포시 고촌읍 수기로67-39, 107, 108호 (신곡리 1256, 수기마을힐스테이트2단지)",김포시,37.5973435,126.7690035
271,GS25고현타운점,"경기 오산시 동부대로338번길32, 1층 일부호 (고현동 12-27)",오산시,37.1386831,127.0788174
272,GS25곡반빌리지점,경기 수원시 권선구 곡선로50번길45-4 (곡반정동 577-1),수원시 권선구,37.236649,127.028862
273,GS25곡반유토빌점,"경기 수원시 권선구 동수원로146번길281-25, B108호 (곡반정동 548, 권선신일유토빌)",수원시 권선구,37.2433813,127.0325212
274,GS25곡반정원룸점,"경기 수원시 권선구 동수원로146번길308-1, 101호 (곡반정동 534-12)",수원시 권선구,37.2423835,127.0307281
275,GS25곤지암리조트2호점,"경기 광주시 도척면 도척윗로278, GS25곤지암리조트2호점 (도웅리 534)",광주시,37.3293474,127.3046111
276,GS25곤지암리조트점,"경기 광주시 도척면 도척윗로278, GS25곤지암리조트점 (도웅리 534)",광주시,37.3336814,127.2896217
277,GS25곤지암마을점,경기 광주시 곤지암읍 대석동길73 (곤지암리 394),광주시,37.352914,127.3445298
278,GS25곤지암목방점,경기 광주시 곤지암읍 경충대로493번길4 (곤지암리 199-3),광주시,37.3415688,127.3477008
279,GS25곤지암쌍용점,"경기 광주시 곤지암읍 곤지암로124, 101호 (곤지암리 459,상가동)",광주시,37.3450305,127.3385657
280,GS25곤지암점,경기 광주시 곤지암읍 곤지암로44 (곤지암리 435-19),광주시,37.349976,127.3418396
281,GS25곤지암제일점,경기 광주시 곤지암읍 곤지암로29(곤지암리 344-2),광주시,37.3491479,127.3434631
282,GS25공도그랑블점,"경기 안성시 공도읍 양기길26, 근린생활 상가동 106호,107호 (양기리 306-33)",안성시,37.0068088,127.1987191
283,GS25공도부영점,"경기 안성시 공도읍 만수로7, 1동 101호(만정리 302-23)",안성시,37.0058873,127.1833096
284,GS25공도사랑점,경기 안성시 공도읍 공도5로54(만정리 799-1),안성시,37.0019138,127.1702595
285,GS25공도양진점,"경기 안성시 공도읍 진사길52, 12호 (진사리 산50-10)",안성시,36.9901792,127.1406121
286,GS25공도용두점,경기 안성시 공도읍 용머리큰길107 (용두리 443-27),안성시,37.0091158,127.1658161
287,GS25공세빌리지점,"경기 용인시 기흥구 한일로9번길3, 103호 (공세동 388-17, 용인기흥교회)",용인시기흥구,37.2433957,127.1030326
288,GS25과림행복점,경기 시흥시 금오로490 (과림동 308-18),시흥시,37.4455138,126.831258
289,GS25과천관문점,"경기 과천시 용마로2, 1층 (과천동 513-4)",과천시,37.4480214,126.9942327
290,GS25과천래미안점,"경기 과천시 별양로28, 1층 1086,1087호 (원문동 4, 래미안 슈르)",과천시,37.42094,126.9922102
291,GS25과천빌리지점,"경기 과천시 뒷골로22-21, 1층 (과천동 370-8)",과천시,37.4547923,126.9989491
292,GS25과천삼성점,"경기 과천시 별양로12, 1005, 1006호 (원문동 4, 래미안슈르 C상가)",과천시,37.4197386,126.9913329
293,GS25과천센트럴점,"경기 과천시 별양로163, 상가 1층 101호 (별양동 3, 래미안과천센트럴스위트아파트)",과천시,37.4318553,126.9978083
294,GS25과천양지점,"경기 과천시 양지마을1로47, 102호 (과천동 458-7)",과천시,37.4497355,126.9985068
295,GS25과천위버필드점,"경기 과천시 별양로39, 1동 102호, 103호 (원문동)",과천시,37.4215562,126.9921704
296,GS25과천자이점,"경기 과천시 별양로142, 과천자이아파트 단지내상가 116-2호, 117호 (별양동 52)",과천시,37.4285279,126.998765
297,GS25과천중앙점,"경기 과천시 중앙로137, 105호(중앙동 40-13, 가보자빌딩)",과천시,37.4287463,126.9916943
298,GS25과천추사로점,"경기 과천시 추사로74, 1층 (주암동 184-4)",과천시,37.4523251,127.0280741
299,GS25과천프리미엄점,"경기 과천시 별양상가2로35, 상가 3동 120호 (별양동 8)",과천시,37.4258894,126.9918215
300,GS25관산그린점,"경기 고양시 덕양구 통일로802번길71, 상가 101,102호 (관산동 996)",고양시덕양구,37.6922498,126.8648754
301,GS25관산럭키점,경기 고양시 덕양구 동헌로1번길4 (관산동 687-56),고양시덕양구,37.7049496,126.8578854
302,GS25관악역점,"경기 안양시 만안구 경수대로1273번길49, 상가 103호(석수1동 110-20, 대주파크빌)",안양시만안구,37.4187483,126.9100174
303,GS25관양동편마을점,"경기 안양시 동안구 동편로120, 101호 (관양동 1672, 동편마을)",안양시동안구,37.411589,126.9674828
304,GS25관양성도점,"경기 안양시 동안구 관악대로388번길21, 101호 (관양동 1463, 성도개발)",안양시동안구,37.4033558,126.9664234
305,GS25관양인덕원점,"경기 안양시 동안구 인덕원로8번길17, 101호 (관양동 1494)",안양시동안구,37.39979659999999,126.973564
306,GS25관양중앙점,경기 안양시 동안구 관악대로360번길19(관양1동 1457-29),안양시동안구,37.4031911,126.9632518
307,GS25관양타운점,"경기 안양시 동안구 관악대로342번길22, 1층 1호 (관양동 1448-14)",안양시동안구,37.4025223,126.9610732
308,GS25관양허브점,"경기 안양시 동안구 동편로24-3, 103호 (관양동 1722, 거성아우룸팰리스)",안양시동안구,37.4110138,126.9703115
309,GS25관양현대점,경기 안양시 동안구 관평로313번길23(관양1동 1387-12),안양시동안구,37.4042732,126.9558725
310,GS25광교40단지점,"경기 수원시 영통구 광교마을로156 (하동 1001, 광교마을40단지)",수원시 영통구,37.2908293,127.0657898
311,GS25광교62단지점,"경기 수원시 영통구 센트럴파크로34, 상가동 103호 (하동 1013, 광교센트럴타운62단지)",수원시 영통구,37.2913925,127.0601026
312,GS25광교대림점,"경기 수원시 영통구 센트럴타운로76, 2동 103호 (이의동 1326, 이편한세상광교)",수원시 영통구,37.2446491,127.0676812
313,GS25광교대학로점,"경기 수원시 영통구 대학3로4번길15, 제지 1층 112호 (이의동 1256-1)",수원시 영통구,37.2916646,127.0623723
314,GS25광교데시앙점,"경기 수원시 영통구 광교로114 (이의동 1351-1, 광교데시앙루브)",수원시 영통구,37.2904308,127.045804
315,GS25광교동진점,"경기 수원시 영통구 대학로34, 111호 (이의동 1258-4, 동진캠퍼스프라자)",수원시 영통구,37.2920064,127.0626343
316,GS25광교드림점,"경기 용인시 수지구 광교중앙로298, 1층 111호 (상현동 1131-8, 광교드림타워2)",용인시수지구,37.2980217,127.0696819
317,GS25광교따복점,"경기 수원시 영통구 창룡대로250, 101호,102호 (이의동 1284, 수원광교따복하우스)",수원시 영통구,37.2961135,127.045777
318,GS25광교래미안점,"경기 수원시 영통구 센트럴파크로60, 상가동 107, 108호 (이의동 1304, 래미안광교)",수원시 영통구,37.2910176,127.0610011
319,GS25광교레이크점,"경기 수원시 영통구 광교호수공원로20, 1층 114호 (원천동 605, 더샵광교레이크시티)",수원시 영통구,37.2790941,127.0658357
320,GS25광교메디톡스점,"경기 수원시 영통구 센트럴타운로114, 광교메디톡스 연구소 1층 (이의동 1322-8)",수원시 영통구,37.3021303,127.0441582
321,GS25광교산자이점,"경기 용인시 수지구 신봉2로94-7, 신봉택지개발지구알2블럭6롯트 (신봉동 242-7)",용인시수지구,37.32948690000001,127.0711079
322,GS25광교센타점,"경기 수원시 영통구 법조로149번길127, 102호 GS25광교센타점 (하동)",수원시 영통구,37.2905527,127.0712908
323,GS25광교센트럴점,"경기 수원시 영통구 도청로10, 1층 (이의동 1338)",수원시 영통구,37.301003,127.0605013
324,GS25광교수자인점,"경기 수원시 영통구 광교호수로152번길23, 101호 (하동 1027, 광교LAKEPARK한양수자인)",수원시 영통구,37.2753925,127.0674623
325,GS25광교아울렛점,"경기 수원시 영통구 도청로10, 지하1층 갤러리아 방면 (이의동 1338)",수원시 영통구,37.301003,127.0605013
326,GS25광교웅진점,"경기 용인시 수지구 법조로251, (110동,101호,102호) (상현동 1107, 광교마을웅진스타클래스1단지)",용인시수지구,37.2929361,127.069702
327,GS25광교원천점,"경기 수원시 영통구 광교중앙로49번길40, 상가 3호, 4호 (원천동 559, 광교원천경기행복주택)",수원시 영통구,37.2854331,127.0599193
328,GS25광교제일점,"경기 수원시 영통구 대학1로58번길7, 1층 (이의동 1263-12)",수원시 영통구,37.2721273,127.1065356
329,GS25광교중앙로점,"경기 수원시 영통구 광교호수공원로277, 근생상가 15호 23호 (원천동 589, 광교중흥에스클래스)",수원시 영통구,37.2790941,127.0658357
330,GS25광교중앙점,"경기 수원시 영통구 도청로65, 힐스테이트2상가 104호 (이의동 1344)",수원시 영통구,37.2954766,127.0537035
331,GS25광교중흥점,"경기 수원시 영통구 광교호수공원로277, 광교중흥 에스클래스 상가동 214호,215호 (원천동 589)",수원시 영통구,37.2790941,127.0658357
332,GS25광교참누리점,"경기 수원시 영통구 법조로134, 1층 108호 (하동 994, 광교호수마을참누리레이크)",수원시 영통구,37.2898337,127.0717637
333,GS25광교타운점,경기 용인시 수지구 광교호수로378번길4-34 (상현동 1159-1),용인시수지구,37.354597,127.0704875
334,GS25광교포레나점,"경기 수원시 영통구 광교호수공원로300, 149호 (하동 868, 포레나광교로피스텔)",수원시 영통구,37.2790941,127.0658357
335,GS25광교플렉스점,"경기 수원시 영통구 센트럴타운로15, 124호 (이의동 1335, 아이플렉스)",수원시 영통구,37.3010511,127.0603135
336,GS25광교하나점,"경기 수원시 영통구 에듀타운로102, 상가 1층 137호 (이의동 1348, 광교중앙역SKVIEW)",수원시 영통구,37.288412,127.051658
337,GS25광교현대점,"경기 수원시 영통구 도청로18번길26, 136호 (이의동 1336)",수원시 영통구,37.2997055,127.0598339
338,GS25광교혜령,경기 수원시 영통구 센트럴파크로127번길83 (이의동 1308-4),수원시 영통구,37.2913925,127.0601026
339,GS25광교호반점,"경기 수원시 영통구 웰빙타운로70, 제근린생활시설동B101호 (이의동 1184, 광교호반베르디움)",수원시 영통구,37.306445,127.0438953
340,GS25광교힐스점,"경기 수원시 영통구 센트럴파크로6, 301동 127호 (하동 1021, 힐스테이트광교상가)",수원시 영통구,37.2913925,127.0601026
341,GS25광릉수목원점,경기 포천시 소흘읍 광릉수목원로650(직동리 393-1),포천시,37.7709537,127.1644789
342,GS25광릉점,경기 남양주시 진접읍 광릉내로30 (부평리 603-1),남양주시,37.7426888,127.1990143
343,GS25광명G타워점,"경기 광명시 소하로190, 1층 151호 (소하동 1344)",광명시,37.4481963,126.8865769
344,GS25광명IC점,"경기 광명시 광명로423-5, 1층 (노온사동 572-59)",광명시,37.4381524,126.844928
345,GS25광명M클러스터점,"경기 광명시 덕안로104번길17, 광명M클러스터 B136호 (일직동 501-4)",광명시,37.4173914,126.8803303
346,GS25광명골드중앙점,"경기 광명시 도덕로54번길4, 1층 (광명동 725-9)",광명시,37.4686955,126.8536703
347,GS25광명광문점,경기 광명시 도덕로18 (광명동 743),광명시,37.46772259999999,126.8499874
348,GS25광명광오점,경기 광명시 광오로7(광명5동 289-13),광명시,37.47509790000001,126.8513136
349,GS25광명나래점,"경기 광명시 금하로527번길9-1, 1층 (소하동 36-14)",광명시,37.4518501,126.8897709
350,GS25광명녹원점,"경기 광명시 범안로998, 106, 107호 (하안동 302, 녹원프라자)",광명시,37.4594052,126.8748904
351,GS25광명디오스점,"경기 광명시 서부샛길778, 1층 102호 (철산동 119-2, 가산디오스텔)",광명시,37.4869922,126.87345
352,GS25광명로데오점,"경기 광명시 오리로856, 101호(철산3동 413, 한복빌딩)",광명시,37.4747107,126.8672885
353,GS25광명리더스점,"경기 광명시 오리로992, 108호(광명3동 158-195)",광명시,37.4799852,126.8532626
354,GS25광명모세로점,경기 광명시 시청로49 (철산동 162-2),광명시,37.4810506,126.8644986
355,GS25광명무역센터점,"경기 광명시 일직로72, C동 111호 (일직동 515, 광명무역센터)",광명시,37.41563,126.8752123
356,GS25광명무지개점,경기 광명시 오리로948-2 (광명동 149-16),광명시,37.4787356,126.8578359
357,GS25광명법원점,"경기 광명시 오리로876번길26 (철산동 254, 미성아이테크빌2차오피스텔)",광명시,37.4773493,126.8666773
358,GS25광명북점,경기 광명시 시청로142(철산1동 62-2),광명시,37.4874791,126.8687727
359,GS25광명세인트점,"경기 광명시 오리로854번길12, 1층 1호(철산3동 420)",광명시,37.474656,126.8683589
360,GS25광명센트럴자이점,"경기 광명시 광명역로28, 상가동 1층 123호 (일직동 517, 광명역센트럴자이)",광명시,37.4165133,126.8849516
361,GS25광명센트레빌점,"경기 광명시 오리로801, 102호 (하안동 864, e편한세상센트레빌A 가상가동)",광명시,37.4676844,126.8672002
362,GS25광명소하점,"경기 광명시 기아로25-1, 103호 (소하동 1236-7, 성신빌딩)",광명시,37.4364696,126.8825425
363,GS25광명스타점,경기 광명시 광명로848번길14 (광명동 296-11),광명시,37.4742223,126.8529098
364,GS25광명스피돔점,"경기 광명시 광명로721, 1층 (광명동 780)",광명시,37.4663574,126.8448864
365,GS25광명시청로점,경기 광명시 시청로99 (철산동 142-1),광명시,37.4850494,126.865908
366,GS25광명시청점,"경기 광명시 시청로15 (철산2동 463-38, 힐팰리스B2층03호)",광명시,37.478372,126.8635815
367,GS25광명신촌점,"경기 광명시 신촌로49 (소하동 1363, 신촌휴먼시아1단지)",광명시,37.4479117,126.8897368
368,GS25광명써밋점,"경기 광명시 양지로16, B2-05,06호 (일직동 513, 광명역써밋플레이스)",광명시,37.456254,127.1615181
369,GS25광명아크포레점,"경기 광명시 새터로44-8, 상가 2,3호 (광명동 307-56, 광명아크포레자이위브아파트2차)",광명시,37.4720541,126.8540893
370,GS25광명오리로점,"경기 광명시 오리로346, 109호,111호 (소하동 1380)",광명시,37.4377755,126.8710107
371,GS25광명유창점,"경기 광명시 범안로1059, 103호 (하안동 33-5, 유창빌딩)",광명시,37.4630735,126.8800653
372,GS25광명일직점,경기 광명시 일직로12번길21 (일직동 510-9),광명시,37.4257803,126.8818654
373,GS25광명제일점,"경기 광명시 광명로888번길14, 101호 (광명동 158-647, 금강빌라)",광명시,37.4776091,126.8553012
374,GS25광명충현점,"경기 광명시 성채안로26, 상가 (소하동 1373, 광명역세권휴먼시아)",광명시,37.4346279,126.8873214
375,GS25광명테크1점,"경기 광명시 하안로60, C동 110호 (소하동 1345, 광명테크노파크)",광명시,37.4445757,126.8948441
376,GS25광명테크3점,"경기 광명시 하안로60, B동 209호(소하1동 1345, 광명테크노파크)",광명시,37.4445757,126.8948441
377,GS25광명파크자이점,"경기 광명시 광명역로26, 상가 141호 (일직동 518, 광명역파크자이)",광명시,37.4165133,126.8849516
378,GS25광명프라임점,경기 광명시 광명로942 (광명동 102-1),광명시,37.482626,126.8562208
379,GS25광명프라자점,"경기 광명시 범안로1040, 105호(하안3동 36, 골드프라자)",광명시,37.4614903,126.8787044
380,GS25광명한라점,"경기 광명시 오리로500, 115호 (소하동 1343-1)",광명시,37.4547293,126.8849293
381,GS25광명한빛점,경기 광명시 새터로116(광명4동 158-335),광명시,37.4774158,126.8582381
382,GS25광명한사랑점,"경기 광명시 광명로877, , 한진상가A동 1122호, 1123호 (광명동 200-6)",광명시,37.4776538,126.8522016
383,GS25광명한진점,경기 광명시 광명로887 (광명4동 158-798),광명시,37.4783506,126.8536234
384,GS25광명현진점,"경기 광명시 목감로88, 상가 101호(광명5동 779, 현진에버빌아파트)",광명시,37.47558009999999,126.8471605
385,GS25광명휴게소점,경기 포천시 영중면 호국로3045 (성동리 895-3),포천시,38.0141571,127.2466795
386,GS25광명휴먼시아점,"경기 광명시 신촌로49, 상가동 101호 (소하동 1363, 신촌휴먼시아)",광명시,37.4496744,126.8920182
387,GS25광문초교점,"경기 광명시 도덕로28번안길7, 201호 (광명7동 736-5, 201호,202호)",광명시,37.4671797,126.8519729
388,GS25광적본점,경기 양주시 광적면 가래비길172 (석우리 714-3),양주시,37.8273109,126.9824468
389,GS25광적석우점,경기 양주시 광적면 광적로192 (석우리 441-9),양주시,37.8349694,126.9764206
390,GS25광적중앙점,경기 양주시 광적면 광적로347 (덕도리 620-2),양주시,37.8448362,126.9653893
391,GS25광주경안점,경기 광주시 중앙로145번길12 (경안동 80-10),광주시,37.4128051,127.2557051
392,GS25광주경화타운점,경기 광주시 수하길11번길15 (송정동 72-7),광주시,37.4166886,127.2617129
393,GS25광주고산점,"경기 광주시 포은대로639, 외 1필지(장지동 225-6)",광주시,37.3834839,127.242493
394,GS25광주고은점,경기 광주시 초월읍 산수로517(신월리 446-5),광주시,37.4068225,127.3084688
395,GS25광주곤지암점,"경기 광주시 곤지암읍 광여로46, 외 1필지(곤지암리 133-7)",광주시,37.35024,127.3506538
396,GS25광주광여로점,"경기 광주시 곤지암읍 광여로342, 외 1필지 (오향리 395-5, 오향그린빌)",광주시,37.3608377,127.3764263
397,GS25광주교헌점,"경기 광주시 오포읍 머루숯길53, 1층(신현리 651-5)",광주시,37.3638566,127.1580057
398,GS25광주궁평점,경기 광주시 도척면 도척윗로222 (궁평리 573-1),광주시,37.3359803,127.3178399
399,GS25광주남촌점,경기 광주시 퇴촌면 천진암로385 (도수리 611-1),광주시,37.4717266,127.3152187
400,GS25광주능평점,"경기 광주시 오포읍 오포로122, 1층(능평리 152-3)",광주시,37.3439005,127.1796949
401,GS25광주대림점,"경기 광주시 순암로36번길41, 101,102호 (역동 247, e편한세상광주역5단지 상가)",광주시,37.4010941,127.246496
402,GS25광주도곡점,경기 광주시 초월읍 경충대로1023-18 (쌍동리 181-25),광주시,37.3688284,127.3041854
403,GS25광주도서관점,경기 광주시 문화로88(경안동 164-5),광주시,37.4108689,127.2518881
404,GS25광주도수길점,"경기 광주시 퇴촌면 도수길27, 3동 1층 (도수리 358-4)",광주시,37.4704717,127.3180723
405,GS25광주도척로점,경기 광주시 도척면 도척로768 (유정리 368-1),광주시,37.2886359,127.3211276
406,GS25광주도척점,경기 광주시 도척면 마도로289(유정리 239-2),광주시,37.2964246,127.331827
407,GS25광주동막점,"경기 광주시 오포읍 문형산길25, 외1필지(신현리 362-14)",광주시,37.3604176,127.1618653
408,GS25광주동우점,경기 광주시 초월읍 용수길31-19 (용수리 194-1),광주시,37.3832743,127.3042891
409,GS25광주매곡점,"경기 광주시 오포읍 양벌로303-3, 1층 (양벌리 561-2, 미리엘빌딩)",광주시,37.3720354,127.247813
410,GS25광주매산점,경기 광주시 오포읍 매자리길11(매산리 226-28),광주시,37.3570816,127.2477568
411,GS25광주목현점,경기 광주시 이배재로165(목현동 8-5),광주시,37.429382,127.2377157
412,GS25광주무갑2호점,경기 광주시 초월읍 산수로642-6 (지월리 887),광주시,37.4074756,127.2879587
413,GS25광주무갑점,경기 광주시 초월읍 산수로730 (무갑리 738-1),광주시,37.4240932,127.308745
414,GS25광주문형점,"경기 광주시 오포읍 오포로504, 외 3필지 가동(문형리 443-1)",광주시,37.3433466,127.2123583
415,GS25광주미라클점,"경기 광주시 초월읍 현산로355, 105, 106호 (지월리 709-1)",광주시,37.4028583,127.2881936
416,GS25광주밀목점,경기 광주시 중앙로338-16 (송정동 410-1),광주시,37.4282071,127.26014
417,GS25광주방도점,경기 광주시 도척면 마도로170 (방도리 249-10),광주시,37.2864672,127.3343454
418,GS25광주산수로탑점,경기 광주시 초월읍 산수로296 (선동리 358-2),광주시,37.3789085,127.3168054
419,GS25광주산이오복점,경기 광주시 초월읍 경충대로863 (산이리 10-1),광주시,37.3605514,127.3156804
420,GS25광주삼동점,경기 광주시 고불로464(삼동 255-1),광주시,37.4104971,127.1993859
421,GS25광주삼백점,"경기 광주시 오포읍 새말길138, 103, 104호 (신현리 405-10)",광주시,37.3741908,127.1655001
422,GS25광주삼지곡점,경기 광주시 삼지곡길56-9 (삼동 142-12),광주시,37.4168813,127.2039261
423,GS25광주새능점,경기 광주시 순암로150 (중대동 2-31),광주시,37.3968535,127.2338675
424,GS25광주새말점,"경기 광주시 오포읍 새말길163, 1층 (신현리 570-73)",광주시,37.3724142,127.1618211
425,GS25광주샘마을점,"경기 광주시 오포읍 오포로467, 101호 (문형리 455)",광주시,37.3565247,127.2074571
426,GS25광주선동점,경기 광주시 초월읍 동막골길73(선동리 134-3),광주시,37.38433029999999,127.3317393
427,GS25광주수레실점,경기 광주시 오포읍 수레실길58-4(능평리 521-26),광주시,37.3500363,127.1603543
428,GS25광주수양점,경기 광주시 곤지암읍 경충대로250 (수양리 224-4),광주시,37.3345739,127.3744519
429,GS25광주순암로점,"경기 광주시 순암로76, 1층 101호 (장지동 346-1)",광주시,37.3947517,127.2407793
430,GS25광주시청점,경기 광주시 중앙로192 (송정동 110-8),광주시,37.4166584,127.2570396
431,GS25광주신시청점,"경기 광주시 행정타운로69-82, 101동 B02호 (송정동 350-35)",광주시,37.427735,127.2475416
432,GS25광주신현타운점,경기 광주시 오포읍 문형산길195 (신현리 120-1),광주시,37.3719381,127.1716241
433,GS25광주심포니점,경기 광주시 도척면 도척로404-5 (진우리 369-17),광주시,37.3170326,127.3348521
434,GS25광주쌍동점,경기 광주시 초월읍쌍동리 355-6번지,광주시,37.3735256,127.2977628
435,GS25광주쌍령점,"경기 광주시 경충대로1514-3, 105호, 106호 (쌍령동 108-2)",광주시,37.4043895,127.269206
436,GS25광주쌍령현대점,"경기 광주시 경충대로1422번길44, 상가동 101,102호 (쌍령동 360-1)",광주시,37.3979231,127.2798979
437,GS25광주쌍용점,"경기 광주시 회안대로350-22, 104호 (태전동 7-4, 태림빌딩)",광주시,37.3855352,127.2365257
438,GS25광주안골점,경기 광주시 경안로89(경안동 189-80),광주시,37.4065265,127.251729
439,GS25광주양벌로점,경기 광주시 오포읍 마루들길216 (양벌리 369),광주시,37.3779947,127.2554237
440,GS25광주역동자이점,"경기 광주시 광주역6로2, 1층 1호 (역동 289-2)",광주시,37.398553,127.25217
441,GS25광주역동점,경기 광주시 광주대로15(역동 27-6),광주시,37.4078861,127.2605884
442,GS25광주운동장점,경기 광주시 오포읍 양벌로58 (양벌리 77-14),광주시,37.3907526,127.2537786
443,GS25광주유정점,경기 광주시 도척면 도척로690(유정리 211-5),광주시,37.2935122,127.3268878
444,GS25광주이배재점,경기 광주시 이배재로494(목현동 710),광주시,37.4316792,127.2061524
445,GS25광주이편한점,"경기 광주시 장지1길25, 2층 (장지동 57-4)",광주시,37.3957511,127.2450157
446,GS25광주장지점,"경기 광주시 경충대로1871, 3층(장지동 602-1)",광주시,37.4052535,127.2319442
447,GS25광주중앙고점,경기 광주시 역동로57-45(역동 145-1),광주시,37.402859,127.2564213
448,GS25광주중앙로점,"경기 광주시 중앙로131, 1층 (경안동 71-20)",광주시,37.4112922,127.2574213
449,GS25광주지월점,경기 광주시 초월읍 설월길23번길20-2 (지월리 753-2),광주시,37.42570750000001,127.2835389
450,GS25광주직동점,경기 광주시 고불로312(직동 3-3),광주시,37.3998336,127.2056267
451,GS25광주천진암로점,경기 광주시 퇴촌면 천진암로522번길2 (관음리 661),광주시,37.4634824,127.3252032
452,GS25광주초월본점,"경기 광주시 초월읍 진새골길5, 2층 (대쌍령리 189-1)",광주시,37.3867287,127.287291
453,GS25광주초월역점,"경기 광주시 초월읍 경충대로1124-18, 1층 (쌍동리 254-1)",광주시,37.3773228,127.2976099
454,GS25광주초월중점,경기 광주시 초월읍 도곡길21번길20 (쌍동리 151-1),광주시,37.3671992,127.3030147
455,GS25광주클리닉점,"경기 광주시 중앙로95-3, 외2 필지(역동 22-40)",광주시,37.4079653,127.2588322
456,GS25광주탄벌대로점,경기 광주시 회안대로645 (탄벌동 535),광주시,37.4102008,127.239112
457,GS25광주태전점,경기 광주시 태봉로9(태전동 262-12),광주시,37.3919784,127.2313196
458,GS25광주텃골점,"경기 광주시 텃골길26번길5 (중대동 207-14, 덕곡빌딩)",광주시,37.4075407,127.2148361
459,GS25광주포돌점,경기 광주시 포돌이로11번길16 (경안동 136-1),광주시,37.4134445,127.2499443
460,GS25광주플래티넘점,"경기 광주시 초월읍 경충대로1284번길40, 상가동 101,102호 (대쌍령리, 쌍용더플래티넘광주)",광주시,37.3898777,127.2899513
461,GS25광주학동점,경기 광주시 초월읍 동막골길143 (학동리 173-3),광주시,37.3826379,127.3306427
462,GS25광주행복점,"경기 광주시 고불로118, A동 101호 (태전동 296-10, 데코빌)",광주시,37.39375860000001,127.2249251
463,GS25광주현대점,"경기 광주시 고불로41, 상가 106호(장지동 692-61, 현대아파트)",광주시,37.3928968,127.2339936
464,GS25광주회덕점,경기 광주시 행정타운로138번길3(회덕동 309-1),광주시,37.4275016,127.243775
465,GS25광탄사랑점,"경기 파주시 광탄면 청계말길2, 1층 (신산리 577-3)",파주시,37.7814057,126.8447573
466,GS25괴안삼거리점,"경기 부천시 범안로9, 1층 (괴안동 171-6)",부천시,37.4804288,126.8064453
467,GS25괴안타운점,경기 부천시 경인로484번길70 (괴안동 99-41),부천시,37.4804369,126.8110038
468,GS25교문대우점,"경기 구리시 장자대로37번길24, 상가동 1층 104호 (교문동 809-3, 교문아파트)",구리시,37.5887612,127.1354041
469,GS25교문사랑점,"경기 구리시 경춘로162번길31, 106호(교문1동 219-29)",구리시,37.5990733,127.1332633
470,GS25교문스타점,경기 구리시 안골로20번길9 (교문동 744),구리시,37.5966853,127.1332276
471,GS25교문우성점,"경기 구리시 체육관로47, 107호 (교문동 809-2)",구리시,37.5889147,127.1370476
472,GS25교문창조점,경기 구리시 체육관로171번길26(교문1동 227-3),구리시,37.6000042,127.1345164
473,GS25교하다율점,"경기 파주시 순못길44, 1층 (다율동 992-11)",파주시,37.72779209999999,126.7159829
474,GS25교하도서관점,"경기 파주시 숲속노을로265, 108,109호 (문발동 562-2)",파주시,37.7240891,126.7112055
475,GS25교하본점,"경기 파주시 청석로302, 상가동 105호 (다율동 986, 청석마을대원효성아파트)",파주시,37.7284966,126.7192877
476,GS25교하사랑점,"경기 파주시 책향기로207, 에이동 101호, 102호 (동패동 1711)",파주시,37.7201705,126.7198654
477,GS25교하술이홀점,"경기 파주시 하지석길29, 1층 (교하동 593-7)",파주시,37.7545245,126.7423961
478,GS25교하점,경기 파주시 교하로1393 (교하동 332-8),파주시,37.7533498,126.7461346
479,GS25교하타운점,"경기 파주시 돌단풍길6, 1층 (문발동 612-5)",파주시,37.7190967,126.7116119
480,GS25교하행복점,경기 파주시 청석로266 (동패동 1695-4),파주시,37.7254767,126.7177346
481,GS25구래나비점,경기 김포시 김포한강9로12번길123 (구래동 6889-2),김포시,37.6372695,126.6313215
482,GS25구래대박점,"경기 김포시 김포한강8로426, 114호,115호 (구래동 6878-14, 라스토케)",김포시,37.6332475,126.6385839
483,GS25구래본점,"경기 김포시 김포한강4로564, 상가동 102,103호 (구래동 6872-2)",김포시,37.6372695,126.6313215
484,GS25구래삼성점,"경기 김포시 김포한강4로420번길80, 101호 (구래동 6874-26)",김포시,37.6360136,126.6350722
485,GS25구래아스타점,"경기 김포시 김포한강9로76번길63, 110호 (구래동 6883-2, 아스타프라자)",김포시,37.6372695,126.6313215
486,GS25구래예미지점,"경기 김포시 솔터로22, 메트로타워 예미지 301동 제1층 제152호 (구래동 6886-4)",김포시,37.6373654,126.6268031
487,GS25구래원점,"경기 김포시 김포한강10로190, 상가 118호,119호,120호 (구래동 6878-7)",김포시,37.6372695,126.6313215
488,GS25구래유보라점,"경기 김포시 김포한강4로487, 1층 1064호 (구래동 6886-6, 한강신도시반도유보라4차)",김포시,37.6464184,126.6299277
489,GS25구래타운점,"경기 김포시 김포한강9로12번길7-2, 102호 (구래동 6892-11)",김포시,37.6326017,126.6281015
490,GS25구래탑점,"경기 김포시 김포한강10로133번길126, 상가 102호,103호,104호 (구래동 6871-41)",김포시,37.6326017,126.6281015
491,GS25구래포인트점,"경기 김포시 김포한강9로75번길96, 104호,105호 (구래동 6881-7)",김포시,37.4108043,127.1268058
492,GS25구래푸르지오점,"경기 김포시 김포한강8로409, 상가 1동 103호 (구래동 6895-2)",김포시,37.6382939,126.7017952
493,GS25구래호수점,"경기 김포시 김포한강4로420번길163, 단지상가 103,104,105호 (구래동 6875-9, 김포한강엘에이치호수마을5단지)",김포시,37.648657,126.630769
494,GS25구래힐점,"경기 김포시 김포한강4로547, 상가 119호,120호 (구래동 6879-6)",김포시,37.6449392,126.6673746
495,GS25구룡공원점,"경기 안산시 상록구 석삼말로210-1, 101호 (이동 612-2)",안산시상록구,37.310342,126.8603127
496,GS25구리갈매점,경기 구리시 갈매동590번지 구리갈매3단지 상가 101호,구리시,37.6364564,127.1198686
497,GS25구리골드점,경기 구리시 동구릉로411-5 (사노동 248-4),구리시,37.6347303,127.140062
498,GS25구리공원점,경기 구리시 장자대로86번길18(수택동 876),구리시,37.586709,127.1397735
499,GS25구리노블하임점,"경기 구리시 경춘로163, 106호 (교문동 245-8, 노블하임오피스텔)",구리시,37.60095159999999,127.1334556
500,GS25구리대명점,"경기 구리시 응달말로19번길27, 1층 한아름마트 (인창동 610-93, 한양태권도)",구리시,37.6021808,127.1336112
501,GS25구리데시앙점,"경기 구리시 벌말로185, 상가 109호 (수택동 888, 구리데시앙아파트)",구리시,37.5930428,127.1501489
502,GS25구리돌다리점,"경기 구리시 경춘로227번길14, 104호 (인창동 277-7)",구리시,37.6017338,127.1393653
503,GS25구리딸기원점,경기 구리시 딸기원로8번길59 (교문동 305-31),구리시,37.6012972,127.1211006
504,GS25구리럭키점,경기 구리시 건원대로34번길27 (인창동 672-2),구리시,37.6047862,127.1415643
505,GS25구리부자점,"경기 구리시 벌말로129번길4, 1층 103~104호(토평동 988-2)",구리시,37.588278,127.148251
506,GS25구리서일점,"경기 구리시 검배로84번길20, 1층 (수택동 479-16, 서일빌딩)",구리시,37.5944749,127.1466936
507,GS25구리선진점,경기 구리시 이문안로126-2 (토평동 964-1),구리시,37.5907502,127.1449753
508,GS25구리세무점,"경기 구리시 안골로44, 101호 (교문1동 735, 한솔빌딩)",구리시,37.5970444,127.1360104
509,GS25구리수택점,경기 구리시 체육관로172번길38(수택1동 374-22),구리시,37.5997112,127.1381867
510,GS25구리스타점,경기 구리시 갈매동614-3번지,구리시,37.6307959,127.1185593
511,GS25구리원일점,"경기 구리시 동구릉로148번길15, 103호 (인창동 691, 가대라곡상사)",구리시,37.6127598,127.1388822
512,GS25구리원탑점,"경기 구리시 체육관로171번길12, 1층 (교문동 227-8)",구리시,37.6000328,127.1352125
513,GS25구리이문안점,경기 구리시 아차산로432번길29(교문1동 758-17),구리시,37.5937111,127.1330096
514,GS25구리주공점,"경기 구리시 건원대로76번길43, 상가 104호 (인창동 664-7, 주공2단지)",구리시,37.6098088,127.1408564
515,GS25구리타운,경기 구리시 이문안로83번길18 (수택동 444-12),구리시,37.592902,127.1409036
516,GS25구리토평점,경기 구리시 벌말로147번길51(토평동 977-16),구리시,37.5897877,127.1462036
517,GS25구리하나점,경기 구리시 이문안로134 (토평동 964-6),구리시,37.5909775,127.14625
518,GS25구리해원점,"경기 구리시 이문안로95, 104호(수택2동 449-14)",구리시,37.5920147,127.1421628
519,GS25구리홈타운점,"경기 구리시 동구릉로112-2, 1층(인창동 407-1)",구리시,37.6042832,127.1349808
520,GS25구문천리점,"경기 화성시 향남읍 발안공단로98, 101동 102호 (구문천리 924-8, 상신프라자)",화성시,37.0867711,126.908492
521,GS25구성래미안점,"경기 용인시 기흥구 구성로88, 102~103호(언남동 412-2)",용인시기흥구,37.294087,127.1189363
522,GS25구성효성점,"경기 용인시 기흥구 구성로53번길12, 1층 (마북동 342-3)",용인시기흥구,37.2960138,127.1157174
523,GS25구운빌리지점,경기 수원시 권선구 구운로45번길81 (구운동 537-6),수원시 권선구,37.2788004,126.9736212
524,GS25구운성원점,"경기 수원시 권선구 일월천로4번길54, 102호 (구운동 918-10, 명수빌딩)",수원시 권선구,37.2824327,126.9752683
525,GS25구운중앙점,"경기 수원시 권선구 구운로47번길6, 1층 (구운동 947-8, 일월프라자)",수원시 권선구,37.2779339,126.9730065
526,GS25구장사거리점,"경기 화성시 팔탄면 푸른들판로712-7, L층 5호 (구장리 3-1)",화성시,37.1717201,126.8925598
527,GS25국군수도병원점,"경기 성남시 분당구 새마을로177번길81, 1층 (율동 222, 국군외상센터)",성남시 분당구,37.3939155,127.1518127
528,GS25국립교통재활병원점,"경기 양평군 양평읍 중앙로260 (도곡리 1030, 국립교통재활병원)",양평군,37.4764586,127.5349744
529,GS25군포고산로점,"경기 군포시 고산로151번길3, 104호 (당정동 974-1, 에스케이프라자)",군포시,37.3483241,126.9552313
530,GS25군포고점,"경기 군포시 번영로550번길23, 종합상가동 102호 (금정동 850-5)",군포시,37.3587195,126.9389045
531,GS25군포공단로점,"경기 군포시 공단로180, 101호 (금정동 608-23)",군포시,37.3666348,126.9464054
532,GS25군포궁내점,경기 군포시 수리산로203번안길10(광정동 1118-6),군포시,37.3666997,126.922996
533,GS25군포금정점,경기 군포시 금재로12번길13-1(재궁동 747),군포시,37.3611347,126.9419658
534,GS25군포당정본점,경기 군포시 봉성로108 (당정동 417-3),군포시,37.3523711,126.9564879
535,GS25군포대림점,"경기 군포시 금산로47, 103호(산본2동 310-2, 이편한세상아파트)",군포시,37.3659702,126.9378834
536,GS25군포대야미점,"경기 군포시 대야2로143번길26, 105,106,107호(대야미동 639-1, 현대프라자)",군포시,37.3319329,126.9161737
537,GS25군포동아점,경기 군포시 군포로490번길9-2 (당동 898-24),군포시,37.3501625,126.9451944
538,GS25군포마리오점,"경기 군포시 공단로140번안길32, 101호 (당정동 181-21)",군포시,37.36078759999999,126.9477431
539,GS25군포번영점,"경기 군포시 금산로1, 상가 101호(금정동 722-7, 아신나부빌)",군포시,37.3627331,126.9410448
540,GS25군포부곡점,"경기 군포시 송부로291번안길3-14, 104호(부곡동 1140-1, 1층)",군포시,37.3221846,126.9442192
541,GS25군포빌리지점,"경기 군포시 군포로580번길50, 101호 (당동 748-29)",군포시,37.355348,126.9477089
542,GS25군포산업단지점,"경기 군포시 산본로98, 9호, 10호 (당정동 343-30)",군포시,37.35420080000001,126.9557255
543,GS25군포삼성로점,"경기 군포시 삼성로6, 101호 (부곡동 1219, 웅신프라자)",군포시,37.3363858,126.9344607
544,GS25군포삼익점,"경기 군포시 오금로36, 상가동 203호 (금정동 871-7, 삼익소월아파트)",군포시,37.3520414,126.9329621
545,GS25군포삼환점,"경기 군포시 수리산로15, , 103호,104호,114호 (산본동 1152-7)",군포시,37.3560111,126.9224873
546,GS25군포설악점,"경기 군포시 수리산로100, 101호 일부 (산본동 1151-12, 상가동)",군포시,37.3580897,126.9168418
547,GS25군포수리산점,경기 군포시 수리산로203번안길38 (산본동 1106),군포시,37.3673229,126.9258366
548,GS25군포스카이점,"경기 군포시 농심로2, 비즈동 103호 (당정동 1054, LT삼보스카이비즈)",군포시,37.3595565,126.9504068
549,GS25군포시청점,경기 군포시 번영로561번길19 (금정동 716-20),군포시,37.3617166,126.9377165
550,GS25군포역점,"경기 군포시 군포로533-8, 1층 (당동 751-11)",군포시,37.3538381,126.9457231
551,GS25군포열린점,경기 군포시 당동로22번길21(당동 763-3),군포시,37.3520376,126.9420709
552,GS25군포용호점,"경기 군포시 용호2로54번길13, 상가동 101호 (당동 886-3,주공3단지아파트)",군포시,37.3444701,126.9452638
553,GS25군포으뜸점,"경기 군포시 당산로38번길4, 1층 (당동 743-19)",군포시,37.355011,126.9449775
554,GS25군포일동점,경기 군포시 산본로234번안길14(군포1동 853-3),군포시,37.356445,126.9432067
555,GS25군포제일점,"경기 군포시 당산로74, 1층 (당동 729-15)",군포시,37.3580569,126.9460321
556,GS25군포주공점,경기 군포시 용호2로9(당동 874-3),군포시,37.3426483,126.940134
557,GS25군포태광점,"경기 군포시 번영로609번길6, 104호(금정동 738-10, 태광오피스텔)",군포시,37.3636194,126.9429198
558,GS25군포평화점,"경기 군포시 당산로116번길2, 1층 (금정동 766-34)",군포시,37.3618406,126.9458381
559,GS25군포한림점,"경기 군포시 공단로294, 1층 (금정동 689-28, 한림테크노빌딩)",군포시,37.3703637,126.9449783
560,GS25군포한양점,경기 군포시 산본로432번길22 (산본동 1088),군포시,37.3681893,126.9291727
561,GS25군포해밀점,"경기 군포시 군포로510번길25, 106호107호 (당동 780-2, 당동누리에뜰해밀)",군포시,37.3520657,126.9464308
562,GS25군포휴먼시아점,"경기 군포시 송부로273번길29, 상가 105호 (부곡동 1098, 휴먼시아)",군포시,37.3208186,126.9285063
563,GS25군포흥안점,경기 군포시 군포로456번길14(당동 922),군포시,37.3465454,126.9448725
564,GS25권선SK점,"경기 수원시 권선구 권선로694번길26, 110동 104호(권선동 1035, 권선SK뷰)",수원시 권선구,37.2578866,127.0261059
565,GS25권선고산로점,경기 수원시 권선구 고산로27번길15 (고색동 73-6),수원시 권선구,37.2486809,126.9809027
566,GS25권선곡선점,"경기 수원시 권선구 동수원로146번길144-2, 1층 (곡반정동 512-6)",수원시 권선구,37.2444698,127.0340794
567,GS25권선골드점,경기 수원시 권선구 세지로140번길2 (권선동 950),수원시 권선구,37.2638759,127.020615
568,GS25권선구운로점,경기 수원시 권선구 구운로26 (구운동 497-13),수원시 권선구,37.2768521,126.9754466
569,GS25권선구청점,경기 수원시 권선구 호매실로21-51 (고색동 1176-1),수원시 권선구,37.253613,126.9885185
570,GS25권선대신점,"경기 수원시 권선구 권중로136 (권선동 1274, 신동아아파트)",수원시 권선구,37.2484664,127.0319048
571,GS25권선명당점,"경기 수원시 권선구 세권로315번길33-4, 1층 (권선동 1283-2, 도원주택)",수원시 권선구,37.2528508,127.0382807
572,GS25권선미래점,"경기 수원시 권선구 효원로230번길38(권선동 1011-14, 미래사랑오피스텔)",수원시 권선구,37.2609693,127.0258982
573,GS25권선브라운도트점,경기 수원시 권선구 권광로123번길12 (권선동 1015-4),수원시 권선구,37.2592356,127.0300635
574,GS25권선브이원점,"경기 수원시 권선구 평동로79번길45, 154호 (평동 4-11)",수원시 권선구,37.2583013,126.9934837
575,GS25권선빌리지점,"경기 수원시 권선구 서수원로577번길341, 제상가동 제비 102호,103호 (금곡동 1078, 수원모아미래도센트럴타운1단지)",수원시 권선구,37.2777572,126.9521813
576,GS25권선삼정점,경기 수원시 권선구 당수로203 (당수동 216),수원시 권선구,37.2897838,126.9443157
577,GS25권선삼천리점,"경기 수원시 권선구 권광로27번길62, 상가동 106호 ,108호 (권선동 1186, 권선삼천리아파트)",수원시 권선구,37.2518366,127.0242314
578,GS25권선세곡점,경기 수원시 권선구 권광로91(권선동 1042-15),수원시 권선구,37.2559936,127.0294231
579,GS25권선세권로점,"경기 수원시 권선구 세권로42, 1층 (세류2동 443-1)",수원시 권선구,37.2592216,127.0090084
580,GS25권선세류로점,"경기 수원시 권선구 세류로39 (세류동 1270, LH수원센트럴타운2단지)",수원시 권선구,37.26202,127.006765
581,GS25권선세지로점,경기 수원시 권선구 세지로126번길44 (권선동 956-17),수원시 권선구,37.2629308,127.021619
582,GS25권선신미주점,경기 수원시 권선구 금호로15번길6 (금곡동 245-66),수원시 권선구,37.2689573,126.9536613
583,GS25권선아이파크점,"경기 수원시 권선구 덕영대로1190번길100, 707동 상가동 109호 110호 (권선동)",수원시 권선구,37.2534158,127.0146726
584,GS25권선오길점,"경기 수원시 권선구 권선로682번길38, 1층 (권선동 1034-7)",수원시 권선구,37.2576607,127.0249409
585,GS25권선오목천점,경기 수원시 권선구 삼천병마로1592-3(오목천동 498-5),수원시 권선구,37.24452710000001,126.9638907
586,GS25권선장다리점,"경기 수원시 권선구 장다리로1, 101호 (세류동 1124-3)",수원시 권선구,37.2509589,127.0171413
587,GS25권선중앙점,"경기 수원시 권선구 장다리로101, 1층 (권선동 972-14)",수원시 권선구,37.259197,127.0214365
588,GS25권선최강점,"경기 수원시 권선구 덕영대로1323번길25-33, 상가동 101호 (권선동 1315, 우남아파트)",수원시 권선구,37.2472731,127.0336333
589,GS25궐동구산점,"경기 오산시 궐동로69번길81, 101호(궐동 654-2)",오산시,37.1584531,127.0593827
590,GS25궐동대호점,"경기 오산시 대호로71번길28, 107호(궐동 683-5)",오산시,37.1583074,127.0535347
591,GS25궐동명성점,"경기 오산시 대호로123, 1층 (궐동 612-4)",오산시,37.161302,127.0538993
592,GS25궐동본점,"경기 오산시 궐리사로96, 102호(궐동 641-2)",오산시,37.1581552,127.0628472
593,GS25궐동빌리지점,"경기 오산시 대호로117번길10, 1층 (궐동 613-5)",오산시,37.1620978,127.0536223
594,GS25궐동상미점,경기 오산시 궐동로9(궐동 676-1),오산시,37.1582771,127.05527
595,GS25궐동승리점,경기 오산시 대호로71번길3-1 (궐동 702-6),오산시,37.1563206,127.053896
596,GS25궐동우진점,경기 오산시 법원로15번길63(궐동 705-9),오산시,37.1544941,127.0550266
597,GS25궐동중앙점,경기 오산시 대호로76 (궐동 689-3),오산시,37.1569587,127.0544769
598,GS25궐동타운점,경기 오산시 궐리사로59번길12 (궐동 630-1),오산시,37.1598552,127.0597245
599,GS25금강스마트점,"경기 안양시 동안구 시민대로311, 112호 (관양동 1746, 금강스마트빌딩)",안양시동안구,37.3959192,126.9646332
600,GS25금곡CM점,"경기 수원시 권선구 금곡로196번길68, 104호 (금곡동 1124-2)",수원시 권선구,37.27104190000001,126.9408213
601,GS25금곡로드점,"경기 남양주시 석실로703, 5호 GS25금곡로드점 (금곡동 638-7)",남양주시,37.6245079,127.2021768
602,GS25금곡삼익점,"경기 수원시 권선구 금호로45, 상가동 103,104호 (금곡동 241, 삼익아파트)",수원시 권선구,37.2696309,126.9566782
603,GS25금곡센트럴점,"경기 수원시 권선구 금곡로137 (금곡동 1072, 수원호매실휴먼시아4단지아파트)",수원시 권선구,37.2744013,126.9466075
604,GS25금곡승민점,"경기 남양주시 홍유릉로325번길17, 2동 101호 (금곡동 678-32)",남양주시,37.6320131,127.2027245
605,GS25금곡신성점,"경기 남양주시 홍유릉로248번길52, 상가동 (금곡동 628)",남양주시,37.6270347,127.2032422
606,GS25금곡우성점,"경기 수원시 권선구 금곡로106, 112호 (금곡동 1085-2, 우성메디피아)",수원시 권선구,37.2773219,126.948769
607,GS25금곡자이점,"경기 수원시 권선구 금곡로31번길7, 상가 1층 (금곡동 648)",수원시 권선구,37.2696839,126.937111
608,GS25금곡파크점,"경기 수원시 권선구 금호로83-8, 111호 (금곡동 1141)",수원시 권선구,37.2729055,126.9663981
609,GS25금광사랑점,경기 성남시 중원구 산성대로408번길10 (금광동 4260),성남시 중원구,37.4478556,127.1595516
610,GS25금광중앙점,경기 성남시 중원구 산성대로382번길26 (금광2동 3729),성남시 중원구,37.4453365,127.1603482
611,GS25금광현대점,경기 성남시 중원구 광명로395번길2(금광2동 2620-1),성남시 중원구,37.4447855,127.1573731
612,GS25금릉타운점,"경기 파주시 금릉이길42, 1층 (금촌동 795-2, 송학연립)",파주시,37.7560911,126.7823479
613,GS25금오2단지점,경기 의정부시 하금로41 (금오동 292-11),의정부시,37.7539621,127.0599154
614,GS25금오그린빌점,"경기 의정부시 청사로48번길26, 상가동 101호, 102호 (금오동 476-1, 주공그린빌아파트)",의정부시,37.7529457,127.0728786
615,GS25금오브래뉴점,"경기 의정부시 호국로1369, 상가동103,104호 (금오동 370, 신도브래뉴아파트)",의정부시,37.7462453,127.0552814
616,GS25금오신도점,"경기 의정부시 동일로660, 상가동 101호 (금오동 344-17,금오2차신도브래뉴UP아파트)",의정부시,37.7478228,127.0556562
617,GS25금오종합점,"경기 의정부시 장곡로626, A동 110호(신곡2동 765-1, 금오종합상가)",의정부시,37.7504029,127.0722051
618,GS25금오주공점,경기 의정부시 부용로214번길14(신곡2동 788-8),의정부시,37.7493827,127.0791505
619,GS25금오퍼스트점,경기 의정부시 금오로109 (금오동 117-15),의정부시,37.7569335,127.0773376
620,GS25금오행정타운점,"경기 의정부시 호국로1519번길20-34, 1층 (금오동 447-8)",의정부시,37.7540538,127.0706791
621,GS25금오현대점,"경기 의정부시 부용로95, 110호(금오동 471-4, 현대프라자)",의정부시,37.7511046,127.0687143
622,GS25금정AK점,"경기 군포시 엘에스로143, 상가 1013호 (금정동 689, 힐스테이트금정역오피스텔)",군포시,37.3725155,126.9472915
623,GS25금정삼성점,경기 군포시 군포로719번길49 (산본동 1029-11),군포시,37.3683813,126.9416936
624,GS25금정센타점,"경기 군포시 군포로759-1, 1층(산본1동 98)",군포시,37.3729279,126.94228
625,GS25금정역점,"경기 군포시 군포로743-1, 1층(산본1동 266-4)",군포시,37.3715457,126.9428876
626,GS25금정주공점,"경기 군포시 광정로25-58, 상가동 1층 (금정동 875-13)",군포시,37.3541073,126.9305388
627,GS25금정중앙점,"경기 군포시 군포로745번길62, 1층 (산본동 236-15)",군포시,37.3698066,126.9397543
628,GS25금정타운점,경기 군포시 당산로125번길18 (금정동 761-11),군포시,37.3621871,126.9440801
629,GS25금촌2동귀빈점,"경기 파주시 쇠재로133, 분산상가동 101호 (금촌2동 1003, 쇠재마을뜨란채)",파주시,37.7529912,126.7755266
630,GS25금촌감사점,"경기 파주시 금정2길37, 1층 (금촌동 785-11)",파주시,37.7561183,126.7783597
631,GS25금촌로타리점,경기 파주시 동산8길25(금촌2동 938-17),파주시,37.7587025,126.7723127
632,GS25금촌사랑점,"경기 파주시 동산길9, 1층 전부(금촌2동 933-14)",파주시,37.7592176,126.7703878
633,GS25금촌스쿨점,"경기 파주시 쇠재안길25, 1층 (금릉동 437-7)",파주시,37.75185210000001,126.7790551
634,GS25금촌역점,경기 파주시 새꽃로194(금촌1동 329-19),파주시,37.7645416,126.7723774
635,GS25금촌원앙점,"경기 파주시 원앙길51, 1층 금촌할인마트 (아동동 355-5)",파주시,37.7657701,126.7769241
636,GS25금촌은혜점,경기 파주시 금정로8 (금촌동 786-23),파주시,37.75599589999999,126.7765562
637,GS25금촌전통시장점,"경기 파주시 명동길45, 1층 (금촌동 323-10)",파주시,37.76308849999999,126.7729098
638,GS25금촌중앙점,"경기 파주시 후곡로50 (금촌2동 992, 분산상가동105,106호)",파주시,37.75289350000001,126.77098
639,GS25금촌초교점,"경기 파주시 새꽃로119, 1층 전체 (금촌동 288-4, 두뇌계발집중력)",파주시,37.7606799,126.7684021
640,GS25금촌터미널점,경기 파주시 아동로9(금촌1동 50-25),파주시,37.7643269,126.7755542
641,GS25금촌팜스프링점,"경기 파주시 송화로13, 상가 169동 111호 (아동동 283, 팜스프링아파트)",파주시,37.773034,126.775372
642,GS25금촌한별점,"경기 파주시 한마음2길5, 101,102호 (금촌2동 234-17, 두보아파트)",파주시,37.7557906,126.7726616
643,GS25금촌행복점,경기 파주시 정담길23 (아동동 275-18),파주시,37.7692158,126.7769536
644,GS25기산대우점,"경기 화성시 동탄지성로409, 101호 (기산동 466, 화성태안푸르지오아파트)",화성시,37.2276197,127.0444328
645,GS25기산래미안점,"경기 화성시 동탄지성로335, 상가동 108호 (기산동 464, 행림마을삼성래미안1차)",화성시,37.2226171,127.0487203
646,GS25기산뷰파크점,"경기 화성시 효행로1177, GS25기산뷰파크점 (기산동 44-7)",화성시,37.21576,127.0542596
647,GS25기안아이유점,"경기 화성시 기배로29, 근생1(217동) 108,109호 (화성우방아이유쉘메가시티2단지) (기안동 373-4)",화성시,37.2222704,126.9762372
648,GS25기안우방점,"경기 화성시 기배로30번길7-30, 111동(근생) 110호,111호 (기안동 454-1)",화성시,37.2207517,126.9791163
649,GS25기흥AK점,"경기 용인시 기흥구 기흥역로63, 301동 103호 (구갈동 234, 힐스테이트)",용인시기흥구,37.2728968,127.1189116
650,GS25기흥IC본점,"경기 용인시 기흥구 기흥단지로6, 1층 (고매동 485-1, MINISTOP)",용인시기흥구,37.221993,127.1035182
651,GS25기흥가나점,경기 용인시 기흥구 농서로236 (농서동 279-1),용인시기흥구,37.228316,127.0744768
652,GS25기흥구성점,"경기 용인시 기흥구 구성로63번길10-1, 1층 (언남동 371-6)",용인시기흥구,37.2954294,127.1175818
653,GS25기흥금화점,경기 용인시 기흥구 금화로58번길8 (상갈동 463-1),용인시기흥구,37.2632926,127.1098216
654,GS25기흥농서점,경기 용인시 기흥구 농서로159 (농서동 149-4),용인시기흥구,37.2248824,127.0809023
655,GS25기흥더시티점,"경기 용인시 기흥구 구성로78번길9, 1층 (언남동 408)",용인시기흥구,37.2938998,127.1183622
656,GS25기흥도서관점,"경기 용인시 기흥구 기흥로116번길5, 상가동 104호 (신갈동 166, 새릉골아파트)",용인시기흥구,37.2868139,127.1120132
657,GS25기흥롯데점,"경기 용인시 기흥구 신정로25, 1층 121호 (신갈동 736, 신흥덕롯데캐슬레이시티)",용인시기흥구,37.2897191,127.1014604
658,GS25기흥마북점,"경기 용인시 기흥구 마북로248, 101호 (마북동 66)",용인시기흥구,37.3094361,127.1312543
659,GS25기흥민속마을점,"경기 용인시 기흥구 사은로126번길48, 1층 (보라동 570)",용인시기흥구,37.25226749999999,127.1205248
660,GS25기흥밸리점,"경기 용인시 기흥구 기흥로58-1, 기흥ICT밸리(SKV1) B동 B102호 (구갈동 259-1)",용인시기흥구,37.2806878,127.1183526
661,GS25기흥보라마을점,"경기 용인시 기흥구 용구대로1844, 상가동 101,102호 (보라동 564)",용인시기흥구,37.2528157,127.1063669
662,GS25기흥상갈점,"경기 용인시 기흥구 상갈로31, 102호(상갈동 119-8)",용인시기흥구,37.2691116,127.1082422
663,GS25기흥상하점,"경기 용인시 기흥구 중부대로788번길20, 주상가 101.102,103,b01호 (상하동 621)",용인시기흥구,37.2572094,127.1389599
664,GS25기흥서천점,"경기 용인시 기흥구 서천동로60, 상가 101호 (서천동 823, 서천마을4단지)",용인시기흥구,37.2403129,127.0755947
665,GS25기흥성원점,"경기 용인시 기흥구 기흥로116번길102, 1층 (언남동 500)",용인시기흥구,37.2893069,127.1224837
666,GS25기흥세무서점,"경기 용인시 기흥구 흥덕2로117번길15, 1층 (영덕동 974-3)",용인시기흥구,37.27822889999999,127.0717957
667,GS25기흥센트럴점,"경기 용인시 기흥구 중부대로494, 1동 110호 (구갈동 234,상가)",용인시기흥구,37.2740419,127.1291129
668,GS25기흥써니점,"경기 용인시 기흥구 고매로16, 상가(고매동 883, 기흥써니밸리)",용인시기흥구,37.2309299,127.1111533
669,GS25기흥예현마을점,경기 용인시 기흥구 예현로35번길21 (서천동 705),용인시기흥구,37.2413755,127.0679165
670,GS25기흥이안점,"경기 용인시 기흥구 중부대로376, 1층 (신갈동 68-6)",용인시기흥구,37.2713491,127.1088506
671,GS25기흥초당타운점,"경기 용인시 기흥구 동백중앙로55, 103호 (중동 1042-2)",용인시기흥구,37.2611302,127.161836
672,GS25기흥파크뷰점,"경기 용인시 기흥구 기흥로116번길58, 나상가동 101호, 102호 (신갈동 697)",용인시기흥구,37.2879835,127.1190086
673,GS25기흥푸르지오점,"경기 용인시 기흥구 기흥역로16, 119동 101호, 102호 (구갈동 227-34, 기흥역지웰푸르지오)",용인시기흥구,37.275657,127.115944
674,GS25기흥풍림점,"경기 용인시 기흥구 관곡로15, 상가동 GS25기흥풍림점 (신갈동 158)",용인시기흥구,37.2831986,127.1076938
675,GS25기흥프라자점,"경기 용인시 기흥구 마북로132, 상가 (마북동 170-2)",용인시기흥구,37.302177,127.1222282
676,GS25기흥한성점,"경기 용인시 기흥구 마북로159, 103호 (마북동 181-2, 한성프라자)",용인시기흥구,37.3040239,127.1235231
677,GS25기흥한양점,"경기 용인시 기흥구 구갈로28번길21-13, 상가동 108호 (구갈동 396, 한양아파트)",용인시기흥구,37.2787847,127.1125383
678,GS25기흥해링턴가점,"경기 용인시 기흥구 덕영대로2077번길33, C동 105호,106호 (영덕동 1267, 기흥효성해링턴플레이스)",용인시기흥구,37.2665441,127.0962098
679,GS25기흥해링턴나점,"경기 용인시 기흥구 덕영대로2077번길33, A동 101,102호(기흥효성해링턴플레이스) (영덕동 1267)",용인시기흥구,37.2665441,127.0962098
680,GS25기흥흥덕로점,경기 용인시 기흥구 흥덕4로30번길28-25 (영덕동 1123-1),용인시기흥구,37.2731896,127.0931277
681,GS25기흥힉스점,경기 용인시 기흥구 영덕동95-39번지 지산 1층,용인시기흥구,37.2690778,127.0798039
682,GS25김포1동점,"경기 김포시 봉화로182번길26, 102호(북변동 757, 산호프라자)",김포시,37.6285616,126.7029694
683,GS25김포갈산점,경기 김포시 월곶면 김포대로2515-9 (갈산리 465-43),김포시,37.70045020000001,126.5708543
684,GS25김포고정점,경기 김포시 통진읍 고정1로32 (고정리 207-2),김포시,37.714393,126.5990141
685,GS25김포구래점,"경기 김포시 김포한강8로378, 110호 (구래동 6885-3, 웅신프라자)",김포시,37.6444495,126.6257488
686,GS25김포누산점,경기 김포시 양촌읍 김포대로1592 (누산리 303),김포시,37.6630056,126.6606968
687,GS25김포대로점,경기 김포시 월곶면 김포대로3010 (포내리 27-13),김포시,37.7281847,126.5321898
688,GS25김포대림점,"경기 김포시 김포한강11로287, 101호 (운양동 1250-3, 풍경마을e편한세상아파트)",김포시,37.6573562,126.6814861
689,GS25김포데시앙점,"경기 김포시 양촌읍 황금로89번길23, 104호 (학운리 3019, 골드벨리자연앤데시앙아파트)",김포시,37.6186175,126.6253274
690,GS25김포로얄로드점,"경기 김포시 월곶면 김포대로2685, 1층 (군하리 341-15)",김포시,37.7091696,126.5548643
691,GS25김포리버시티점,"경기 김포시 고촌읍 상미로38, 상가 나동 B102호,B103호,B104호 (향산리 83-1)",김포시,37.6209587,126.7430927
692,GS25김포마산원룸점,경기 김포시 김포한강8로148번길8-1 (마산동 667-10),김포시,37.6399687,126.6519749
693,GS25김포마산타운점,경기 김포시 김포한강7로22번길174-127 (마산동 674-1),김포시,37.6471623,126.6401282
694,GS25김포마송점,"경기 김포시 통진읍 마송1로133, 마송휴먼시아매수리마을상가 105, 106, 107호 (마송리 512, 매수리마을휴먼시아아파트)",김포시,37.6899299,126.5973033
695,GS25김포무지개점,"경기 김포시 중봉로58번길22, 상가동 102호 (감정동 521-1, 무지개희영아파트)",김포시,37.6261643,126.6980085
696,GS25김포백두산점,"경기 김포시 김포한강9로116, 상가 B동 106호, 107호 (구래동 6873-19, 한강신도시반도유보라5차)",김포시,37.6493578,126.625647
697,GS25김포북변점,경기 김포시 봉화로167 (북변동 775),김포시,37.6269308,126.7029751
698,GS25김포사우점,경기 김포시 관순로5(사우동 1009),김포시,37.6211672,126.7159206
699,GS25김포서암점,"경기 김포시 통진읍 서암로85, 1층 (서암리 759-89)",김포시,37.6926993,126.5989496
700,GS25김포서연점,"경기 김포시 고촌읍 고송로16-1, 1층 101호 (신곡리 541-7)",김포시,37.6042012,126.7686685
701,GS25김포석정점,"경기 김포시 대곶면 대곶로418, 1층 (석정리 1024-2)",김포시,37.6806608,126.5543497
702,GS25김포센트럴점,"경기 김포시 김포한강9로73, 1동 112호 (구래동 6884-8, 센트럴프라자)",김포시,37.6431619,126.716606
703,GS25김포수남점,경기 김포시 대곶면 수남로67-1 (대벽리 74-7),김포시,37.6326953,126.581951
704,GS25김포스탠다드점,경기 김포시 양촌읍 김포대로1759번길134-47 (양곡리 122-1),김포시,37.6669625,126.6371589
705,GS25김포시청점,"경기 김포시 봉화로21번길37, A동 101호 (사우동 252-3, 보인빌라)",김포시,37.6169786,126.7143639
706,GS25김포신화점,"경기 김포시 양촌읍 양곡4로29, 1층 (구래리 194-4)",김포시,37.6559139,126.6234434
707,GS25김포아라점,"경기 김포시 고촌읍 아라육로58번길105, 1층 102호(전호리 706)",김포시,37.5998169,126.7923917
708,GS25김포아크라점,"경기 김포시 김포한강10로133번길56, 1층, 110호,111호,112호 (구래동 6871-54)",김포시,37.6372695,126.6313215
709,GS25김포애기봉로점,경기 김포시 월곶면 애기봉로391 (개곡리 169-7),김포시,37.7343897,126.5874119
710,GS25김포어울림점,"경기 김포시 양촌읍 양곡4로197번길12, 105호,106호 (양곡리 1241, 한강금호어울림2단지)",김포시,37.6617216,126.6293785
711,GS25김포에코점,"경기 김포시 사우중로23, 101호 (사우동 251, 에코힐즈)",김포시,37.6176016,126.7170501
712,GS25김포우남점,"경기 김포시 김포한강2로103, 장기동 우남퍼스트빌상가동 102, 112, 113호 (장기동 2065-1, 초당마을우남퍼스트빌아파트)",김포시,37.6372649,126.672404
713,GS25김포우미린점,"경기 김포시 김포한강5로417, 상가 101호 (구래동 6873-8, 한가람마을우미린)",김포시,37.6493578,126.625647
714,GS25김포운양점,"경기 김포시 김포한강11로288-5, 109호 (운양동 1297-1, 한강베네치아)",김포시,37.6401828,126.6935059
715,GS25김포유현점,"경기 김포시 유현로52, 1층 110호(풍무동 532-3, 프라임프라자)",김포시,37.5967827,126.7277712
716,GS25김포장기점,"경기 김포시 김포한강1로78번길50, 1층(장기동 1458)",김포시,37.6434603,126.6721747
717,GS25김포중흥점,경기 김포시 김포한강2로362 (장기동 1866-1),김포시,37.651157,126.6686098
718,GS25김포초당점,"경기 김포시 김포한강2로113, 상가 109호(장기동 2058-1, 초당마을)",김포시,37.6432397,126.6702043
719,GS25김포축복점,경기 김포시 양촌읍 양곡2로60번길68-3 (양곡리 1294-1),김포시,37.6563292,126.6296312
720,GS25김포캐슬점,"경기 김포시 고촌읍 태리로236, 104호 105호 (신곡리 923-2, 캐슬앤파밀리에시티1단지)",김포시,37.60164830000001,126.7506294
721,GS25김포타운점,"경기 김포시 청송로19, 106,107호 (장기동 1312, 상가동)",김포시,37.6489386,126.666281
722,GS25김포탑점,"경기 김포시 허산길50, 상가동 103호, 104호 (장기동 2060-2)",김포시,37.6376573,126.6865266
723,GS25김포푸른마을점,"경기 김포시 중봉1로12, 107호,108호 (감정동 551-8)",김포시,37.6224956,126.6994998
724,GS25김포풍년마을점,"경기 김포시 풍년로11, 상가 104호, 103호 (사우동 856)",김포시,37.6243325,126.7238977
725,GS25김포프라자점,"경기 김포시 사우중로73번길38, 107.108호(북변동 819, 김포프라자)",김포시,37.6224944,126.7206452
726,GS25김포하성점,경기 김포시 하성면 하성로508-10 (석탄리 530-4),김포시,37.7196892,126.6348108
727,GS25김포학운점,"경기 김포시 양촌읍 학운산단3로25번길34, 1층 전체 (학운리 3293)",김포시,37.6058221,126.601983
728,GS25김포한강로점,경기 김포시 장기동1872-8번지,김포시,37.6449061,126.6695965
729,GS25김포향산점,"경기 김포시 고촌읍 상미1로7, 상가 나동 B119호, B120호 (향산리 83-1)",김포시,37.619139,126.7460746
730,GS25꽃뫼노을점,경기 수원시 장안구 덕영대로639번길63 (정자동 881-4),수원시 장안구,37.2911507,126.9890042
731,GS25나눔김포감정점,"경기 김포시 감정로87, 상가 101호,102호 (감정동 631, 김포센트럴헤센1단지)",김포시,37.6164129,126.7034228
732,GS25나눔동탄스타점,"경기 화성시 메타폴리스로53, 104호, 104-1호 (반송동 92-7)",화성시,37.2021814,127.0731896
733,GS25나눔마송점,"경기 김포시 통진읍 마송1로9, 제 상가동 1층, 101,102,103호 (마송리 6-3)",김포시,37.6871275,126.5911758
734,GS25남동탄빌리지점,"경기 화성시 동탄순환대로16길30 (산척동 0, 스카이빌)",화성시,37.043909,127.013414
735,GS25남동탄타운점,"경기 화성시 동탄순환대로14길50-20, 1층 일부 (산척동 산114-1)",화성시,37.2040251,127.066971
736,GS25남면상수,경기 양주시 남면 삼일로646 (상수리 162-166),양주시,37.8729154,126.9957526
737,GS25남문아울렛점,경기 수원시 팔달구 인계동762-81번지,수원시 팔달구,37.2737861,127.0203073
738,GS25남사봉무로점,"경기 용인시 처인구 남사면 봉무로1, 1층 (봉무리 449-1, 경기자동차공업사)",용인시처인구,37.1146374,127.1524298
739,GS25남사북리점,경기 용인시 처인구 남사면 경기동로81 (북리 696-6),용인시처인구,37.14559029999999,127.137021
740,GS25남서울오토점,"경기 용인시 기흥구 영덕동21-1, 남서울오토허브 2층 24, 25호",용인시기흥구,37.2691386,127.0945834
741,GS25남수원점,"경기 수원시 권선구 권중로158 (권선동 1270, 벽산아파트)",수원시 권선구,37.2507455,127.0328101
742,GS25남양가운점,"경기 남양주시 가운로2길114, 111호 GS25남양가운점 (다산동 685-1)",남양주시,37.598312,127.1610063
743,GS25남양기아로점,경기 화성시 남양읍 현대기아로701 (북양리 534-8),화성시,37.194341,126.8515967
744,GS25남양뉴타운점,"경기 화성시 남양읍 역골동로38, 1층 (남양리 2055-14)",화성시,37.2042796,126.8296491
745,GS25남양도농점,"경기 남양주시 미금로37-6, 1층 106호 (도농동 306-5, 연성프라자)",남양주시,37.608337,127.1516376
746,GS25남양로점,경기 화성시 남양읍 남양로387 (신남리 1151-7),화성시,37.1755627,126.8142931
747,GS25남양브릭스점,"경기 남양주시 경춘로368, 109호(가운동 668-3, 브릭스타워)",남양주시,37.6044483,127.1555596
748,GS25남양서희1단지점,"경기 화성시 남양읍 화성시청역로1, 화성시청역 센트럴파크 서희스타힐스1단지 상가동 104호 105호 (신남리)",화성시,37.1878968,126.8205267
749,GS25남양스타점,경기 화성시 남양읍 시청로202번길54-14 (남양리 2160-1),화성시,37.1964083,126.8326419
750,GS25남양시청로점,"경기 화성시 남양읍 시청로52, 1층 102호 (남양리 1747-25)",화성시,37.1964083,126.8326419
751,GS25남양시티본점,"경기 화성시 남양읍 시청로102번길51, 상가동 102호 103호 (남양리 2312, 시티프라디움1차아파트)",화성시,37.19702340000001,126.8188127
752,GS25남양시티점,"경기 화성시 남양읍 화성로1468, 1층 (북양리 55-4)",화성시,37.222412,126.842206
753,GS25남양신남로점,"경기 화성시 남양읍 신남로320, 1층 (신남리 1236-1)",화성시,37.173612,126.8040799
754,GS25남양아이리스점,"경기 화성시 남양성지로147, 102호(남양동 1268)",화성시,37.20945580000001,126.8187965
755,GS25남양아이파크점,"경기 화성시 남양읍 역골동로65, 1층 (남양리 2046-12)",화성시,37.2042796,126.8296491
756,GS25남양역골로점,"경기 화성시 남양읍 역골로49번길35, 1층 (남양리 2012-6)",화성시,37.2037429,126.8254902
757,GS25남양주공점,"경기 화성시 남양읍 시청로45번길96, 101,102호 (남양리 1563, 화성남양뉴타운LH4단지)",화성시,37.2075104,126.8225989
758,GS25남양주금곡점,"경기 남양주시 사릉로14(금곡동 416-1, 금곡프라자)",남양주시,37.6342591,127.207629
759,GS25남양주대림점,"경기 남양주시 오남읍 양지로240번길33, e편한세상1단지상가동106,107호 (양지리 807, 이편한세상아파트)",남양주시,37.69938399999999,127.1954979
760,GS25남양주대명점,"경기 남양주시 경춘로1308번길8-12, 2동 1층 4호(평내동 107-1, 대평아파트)",남양주시,37.6495136,127.2397924
761,GS25남양주덕소점,"경기 남양주시 와부읍 덕소로97번길80, 상가동 108호, 109호 (덕소리 612)",남양주시,37.5879951,127.2207743
762,GS25남양주도곡점,"경기 남양주시 와부읍 덕소로230-34, 상가동 101호 (도곡리 1010-1, 강변해태아파트)",남양주시,37.5775032,127.2202224
763,GS25남양주동부점,"경기 남양주시 와부읍 덕소로97번길99, 상가동 1층 105호,106호 (덕소리 613)",남양주시,37.5901298,127.2221504
764,GS25남양주마석점,경기 남양주시 화도읍 맷돌로135 (마석우리 360-5),남양주시,37.6580603,127.3051615
765,GS25남양주묵현점,"경기 남양주시 화도읍 먹갓로28번길39-2, 102호 (묵현리 365-7, 신성빌라3차)",남양주시,37.6568935,127.2791859
766,GS25남양주별내점,경기 남양주시 별내5로5번길8-9 (별내동 1091-4),남양주시,37.6638323,127.1079731
767,GS25남양주본점,"경기 남양주시 오남읍 진건오남로629-1, 지하1층 (오남리 683-7,진주종합상가)",남양주시,37.6892317,127.2117114
768,GS25남양주사능점,경기 남양주시 진건읍 진건오남로90(용정리 774-9),남양주시,37.6586967,127.1783314
769,GS25남양주세무서점,"경기 남양주시 화도읍 경춘로1807, 105 B호 (묵현리 241-11)",남양주시,37.6565133,127.2907836
770,GS25남양주송능점,경기 남양주시 진건읍 진건오남로372 (송능리 121-38),남양주시,37.6727071,127.198264
771,GS25남양주신명점,"경기 남양주시 늘을2로90-46, 상가 107호, 108호 (호평동 615)",남양주시,37.6602612,127.2459652
772,GS25남양주신우점,"경기 남양주시 진접읍 금강로1553-26, (신우아파트상가동105호,106호,107호,108호) (장현리 79-1, 신우아파트)",남양주시,37.7294588,127.191463
773,GS25남양주알프하임점,"경기 남양주시 백봉로32, C동 100호, 101호 (호평동)",남양주시,37.6589927,127.2508107
774,GS25남양주월문점,경기 남양주시 와부읍 석실로200 (월문리 1057-19),남양주시,37.591936,127.2285532
775,GS25남양주율석리점,경기 남양주시 와부읍 석실로488번길6 (율석리 748-23),남양주시,37.6104444,127.2123126
776,GS25남양주인정점,경기 남양주시 와부읍 수레로9번안길1 (덕소리 421-8),남양주시,37.5893244,127.2144296
777,GS25남양주진안점,경기 남양주시 경춘로744 (일패동 100-5),남양주시,37.6245732,127.1888405
778,GS25남양주천마점,"경기 남양주시 천마산로14, 1층 (호평동 405-15, 천마마트)",남양주시,37.6631133,127.2482712
779,GS25남양주청학점,"경기 남양주시 별내면 청학로중앙길9, 105호(청학리 413, 청화빌딩)",남양주시,37.7086033,127.1183684
780,GS25남양주타운점,"경기 남양주시 진접읍 장현천로10번길9, 1층 (장현리 346-1)",남양주시,37.7187768,127.1856434
781,GS25남양주퇴계원점,경기 남양주시 퇴계원면 퇴계원로26 (퇴계원리 298-4),남양주시,37.6490581,127.1411082
782,GS25남양큐브점,경기 화성시 남양읍 남양로675 (남양리 2320-4),화성시,37.206849,126.814821
783,GS25남양타운점,경기 화성시 남양읍 역골로29-27 (남양리 2074-1),화성시,37.2013973,126.8259343
784,GS25남양타운점,"경기 화성시 남양읍 남양로786번길15, 상가 103,104호 (남양리 2218, 단지)",화성시,37.1963991,126.8056237
785,GS25남양프라자점,"경기 화성시 남양읍 남양로829, 1층 120호 (남양리 2232-5, 현대프라자)",화성시,37.2158552,126.808266
786,GS25남이천IC점,"경기 이천시 모가면 공원로2-5, 101 , GS25 (어농리 112, 남이천IC)",이천시,37.1788952,127.4402191
787,GS25남한산성점,경기 광주시 중부면 남한산성로769-7 (산성리 507-1),광주시,37.4776067,127.1848498
788,GS25내각창조점,"경기 남양주시 진접읍 내각2로32번길1, 1층 내 101 (내각리 765-10)",남양주시,37.7045286,127.1603124
789,GS25내각후레쉬점,경기 남양주시 진접읍 내각1로73번안길2 (내각리 753),남양주시,37.7053646,127.1646022
790,GS25내손공원점,"경기 의왕시 내손공원길4, 1층 (내손동 668)",의왕시,37.3863543,126.9829968
791,GS25내유로드점,경기 고양시 덕양구 통일로1261 (내유동 549-1),고양시덕양구,37.7247759,126.843252
792,GS25내유중앙점,"경기 고양시 덕양구 통일로1170번길65-25, 지층 (내유동 471-19)",고양시덕양구,37.7230383,126.8538985
793,GS25내유최고점,"경기 고양시 덕양구 유산길17번길46, 1층 일부 (내유동 667-8)",고양시덕양구,37.727978,126.845455
794,GS25내촌제일점,"경기 부천시 오정구 삼작로233번길44, 1층 (내동 349-2)",부천시,37.5220932,126.7874961
795,GS25녹양타운점,경기 의정부시 녹양로87번길38-11 (녹양동 379-5),의정부시,37.759722,127.0339181
796,GS25녹양휴먼시아점,"경기 의정부시 체육로278, 녹양휴먼시아 1단지 104동 상가 101호, 102호 (녹양동 409)",의정부시,37.760374,127.0380679
797,GS25녹양힐스테이트점,"경기 의정부시 가금로34번길23, 301동 101호 (가능동 50, 힐스테이트녹양역)",의정부시,37.7538701,127.0413364
798,GS25뉴고강제일점,"경기 부천시 역곡로489번길33, 101호 (고강동 312-2, 파인센트레빌)",부천시,37.5284911,126.8142646
799,GS25뉴고양동익점,"경기 고양시 덕양구 푸른마을로6, 101호 (고양동 721,e프라자)",고양시덕양구,37.7088445,126.9029391
800,GS25뉴곤지암삼리점,"경기 광주시 곤지암읍 평촌길53, 1층 (삼리 405-9)",광주시,37.3549458,127.3251002
801,GS25뉴과천별양점,"경기 과천시 별양상가1로30, 104호 (별양동 1-8, 골든타워)",과천시,37.4282229,126.9933305
802,GS25뉴관산신성점,"경기 고양시 덕양구 통일로771번길23, 1층 (관산동 211-4)",고양시덕양구,37.6864645,126.8646914
803,GS25뉴광명가온점,"경기 광명시 가학로21, 1층 (가학동 521-2)",광명시,37.4171558,126.852006
804,GS25뉴광주삼동역점,경기 광주시 순암로455-1 (삼동 226-7),광주시,37.4092473,127.2037798
805,GS25뉴광주실촌점,"경기 광주시 곤지암읍 곤지암로80, 1층 (곤지암리 453-47)",광주시,37.3490316,127.3386028
806,GS25뉴광주열미점,경기 광주시 곤지암읍 광여로223 (열미리 473-3),광주시,37.3538453,127.3666107
807,GS25뉴광주진우점,경기 광주시 도척면 도척로192 (진우리 28),광주시,37.3354005,127.3362961
808,GS25뉴광주천진암점,"경기 광주시 퇴촌면 천진암로591, 1층 (관음리 504-6)",광주시,37.4591436,127.3310398
809,GS25뉴김포걸포동점,"경기 김포시 걸포로34, 상가 101호,102호 (걸포동 294-53)",김포시,37.6409067,126.7034229
810,GS25뉴녹양역점,"경기 의정부시 체육로298-13, 101호, 103호 (녹양동 412-3, 현대프라자)",의정부시,37.7604438,127.0409883
811,GS25뉴대광리점,경기 연천군 신서면 연신로1168 (도신리 285-18),연천군,38.1858548,127.1080949
812,GS25뉴동안산병원점,"경기 안산시 상록구 월피로83, 1층 일부 (월피동 474-10)",안산시상록구,37.3357789,126.8523802
813,GS25뉴동탄시티점,"경기 화성시 동탄중심상가2길11, 102호, 103호 (반송동 88-9)",화성시,37.2057323,127.0732656
814,GS25뉴동탄장지천점,"경기 화성시 동탄장지천6길54, 1층 (장지동 1015-1)",화성시,37.4833572,127.1352814
815,GS25뉴동탄캐슬점,"경기 화성시 동탄반석로231, 상가동 106호 (석우동 55, 동탄예당마을롯데캐슬)",화성시,37.2101228,127.0735353
816,GS25뉴목동대명점,"경기 광주시 광남안로129번길1, 1층 (목동 19-10)",광주시,37.3828015,127.2158337
817,GS25뉴병점캐슬점,"경기 화성시 병점노을로31, 근린생활시설 1동 24호,25호 (병점동 881)",화성시,37.2150295,127.0473261
818,GS25뉴부천석원점,"경기 부천시 부일로518번길22, 1층 101호 (심곡동 140-2)",부천시,37.4841943,126.7874248
819,GS25뉴삼정타운점,"경기 부천시 중동로425번길21, 101호 (삼정동 288)",부천시,37.5177689,126.7680462
820,GS25뉴상동디아뜨점,"경기 부천시 길주로77번길19-45, 112호 (상동 530-1, 디아뜨갤러리4차)",부천시,37.5076417,126.7493922
821,GS25뉴상동신라점,"경기 부천시 부일로191번길35, 상가 113호,114호 (상동 399)",부천시,37.4904524,126.750372
822,GS25뉴상동아크로점,"경기 부천시 부일로205번길54, 105,111호 (상동 402-1)",부천시,37.490784,126.7536175
823,GS25뉴새꽃마을점,"경기 파주시 새꽃로35, 상가동 103,104호 (금촌동 984, 새꽃마을주공아파트)",파주시,37.7533087,126.7670911
824,GS25뉴서울CC점,"경기 광주시 삼지곡길95, 그늘집 (삼동 1)",광주시,37.4204132,127.215209
825,GS25뉴성결대점,경기 안양시 만안구 냉천로2 (안양동 560-11),안양시만안구,37.3821112,126.9299188
826,GS25뉴성남신시청점,경기 성남시 중원구 성남대로997번길25-7 (여수동 215),성남시 중원구,37.4181323,127.1263953
827,GS25뉴시민회관점,경기 이천시 애련정로109 (창전동 461-19),이천시,37.2802211,127.4500574
828,GS25뉴심곡타운점,"경기 부천시 부천로30번길10, 1층 (심곡동 168-6)",부천시,37.486745,126.78391
829,GS25뉴안산그린빌점,"경기 안산시 단원구 초지1로17, 104호 (초지동 738, 그린빌주공18단지아파트 나상가동)",안산시단원구,37.3051963,126.809726
830,GS25뉴안성태산점,"경기 안성시 공도읍 벚꽃길33, 1층 (용두리 682-11)",안성시,36.9996,127.1547173
831,GS25뉴안양우정점,"경기 안양시 동안구 관악대로480, 101호 (관양동 1488-7)",안양시동안구,37.4024329,126.9754007
832,GS25뉴안양임곡점,"경기 안양시 동안구 임곡로62, 110호 (비산동 514)",안양시동안구,37.4047938,126.9337348
833,GS25뉴운정대방점,"경기 파주시 초롱꽃로130, B동 205,206,207호 (동패동 533-1, 파주운정신도시디에트르더퍼스트)",파주시,37.7111235,126.7194461
834,GS25뉴의정능곡점,경기 의정부시 능곡로26번길35 (신곡동 485-5),의정부시,37.7397833,127.0632108
835,GS25뉴의정부본점,"경기 의정부시 신흥로222번길5-30, 106109호 (의정부동 499-6)",의정부시,37.7365601,127.0445832
836,GS25뉴의정부용현점,"경기 의정부시 오목로33, 1층 7호 (용현동 39-9)",의정부시,37.7364184,127.0910199
837,GS25뉴의정청사점,"경기 의정부시 장곡로596번길15, 1층 109, 110호 (신곡동 760-3)",의정부시,37.7491982,127.0695347
838,GS25뉴인계경수점,"경기 수원시 팔달구 경수대로480번길11-27, 1층 (인계동 950)",수원시 팔달구,37.2699575,127.0286283
839,GS25뉴인계원룸점,"경기 수원시 팔달구 장다리로283번길9, 1층 (인계동 956, 다온 NOBLE)",수원시 팔달구,37.2748263,127.0281113
840,GS25뉴탄현사랑점,"경기 고양시 일산서구 탄중로233번길26, 1층 (탄현동 1491)",고양시일산서구,37.6946545,126.7708626
841,GS25뉴탄현제니스점,"경기 고양시 일산서구 일현로97-11, 판매시설동 제1층 175,176호 (탄현동 1640)",고양시일산서구,37.6951378,126.7636152
842,GS25뉴파주부곡점,경기 파주시 파주읍 윗가마울길60 (부곡리 177-3),파주시,37.8175651,126.8299617
843,GS25뉴평촌귀인점,"경기 안양시 동안구 귀인로214, 1층 (평촌동 341-3)",안양시동안구,37.385818,126.9627706
844,GS25뉴평택스마트점,"경기 평택시 포승읍 평택항로184번길7, 101호,102호 (만호리 574-5)",평택시,36.9756265,126.8447388
845,GS25뉴포천대로점,경기 포천시 내촌면 금강로2684 (소학리 234-1),포천시,37.80598639999999,127.2522229
846,GS25뉴호계브라운점,경기 안양시 동안구 경수대로609번길28 (호계동 940-29),안양시동안구,37.3764249,126.9541236
847,GS25뉴호계월드점,"경기 안양시 동안구 흥안대로109번길8, 102호 (호계동 960)",안양시동안구,37.3705716,126.957191
848,GS25능곡대림점,"경기 고양시 덕양구 토당로42번길21, 1층 (토당동 856-2, 세화빌딩)",고양시덕양구,37.6204165,126.8218624
849,GS25능곡파워점,경기 고양시 덕양구 지도로100(토당동 845),고양시덕양구,37.6260499,126.824055
850,GS25능곡휴먼시아점,"경기 시흥시 승지로36, 상가 101호 (능곡동 772, 능곡휴먼시아7차아파트)",시흥시,37.3670765,126.8100947
851,GS25능동이너매스점,"경기 화성시 동탄하나1길47-8, 1층 103,112호(능동 1064-4, 익현오피스텔)",화성시,37.21790360000001,127.0587814
852,GS25능평센터점,경기 광주시 오포읍 오포로198 (능평리 92-6),광주시,37.349072,127.184676
853,GS25능평스카이점,경기 광주시 오포읍 능평로46-6 (능평리 338-5),광주시,37.3525733,127.1639786
854,GS25능평타운점,경기 광주시 오포읍 오포로171번길31 (능평리 123),광주시,37.3487687,127.1809523
855,GS25다산골드점,"경기 남양주시 다산순환로125, 115동 8호,9호 (다산동 6075, 다산한양수자인리버파크)",남양주시,37.6210052,127.1893913
856,GS25다산금강점,경기 남양주시 다산지금로123번길16 (다산동 2757-6),남양주시,37.6258664,127.1549411
857,GS25다산데시앙점,"경기 남양주시 다산중앙로82번길105, 상가동 114호115호 (다산동 6109)",남양주시,37.6191011,127.1576713
858,GS25다산도서관점,"경기 남양주시 다산중앙로82번안길132-12, 1층 (다산동 3200-2)",남양주시,37.6191011,127.1576713
859,GS25다산라페온빌점,"경기 남양주시 다산중앙로113, 105호 (다산동 6089-2, 다산진건지구 업무1-3)",남양주시,37.598579,126.8738692
860,GS25다산리버점,"경기 남양주시 다산순환로171, 124동 102호103호 (다산동 6024,다산한양수자인리버팰리스)",남양주시,37.492994,127.112326
861,GS25다산리코빌점,"경기 남양주시 다산순환로220, 120,121호 (다산동 6020,리코빌파크뷰오피스텔)",남양주시,37.6210052,127.1893913
862,GS25다산법원스타점,"경기 남양주시 다산중앙로82번안길85-5, 1층 (다산동 6166-1)",남양주시,37.6191011,127.1576713
863,GS25다산부영점,"경기 남양주시 도농로70, 상가동 1층 (다산동 4002-10)",남양주시,37.6112944,127.1573114
864,GS25다산샤르망점,"경기 남양주시 다산중앙로123번길22-16, 106호 (다산동 6060-1)",남양주시,37.4104342,127.2553908
865,GS25다산센트럴파크점,"경기 남양주시 다산중앙로82번길87-17, 센트럴파크6단지 아파트 단지내상가 제108호 (다산동 6107)",남양주시,37.6191011,127.1576713
866,GS25다산스타점,경기 남양주시 미금로189번길11 (다산동 3387-13),남양주시,37.6156105,127.1623961
867,GS25다산안강점,"경기 남양주시 경춘로508-8, 104호,105호 (다산동 6193-2, 안강프라이빗다산)",남양주시,37.6110896,127.169476
868,GS25다산에일린점,"경기 남양주시 다산지금로16번길86, B214,215 (다산동 6208)",남양주시,37.6360028,127.2165279
869,GS25다산자이점,"경기 남양주시 다산중앙로153, 117호118호 (다산동 6028, 다산자이아이비플레이스)",남양주시,37.4131581,127.2568143
870,GS25다산중앙점,경기 남양주시 다산중앙로82번안길22-7 (다산동 3372),남양주시,37.6191011,127.1576713
871,GS25다산채움점,"경기 남양주시 다산중앙로19번길25-27, 다산블루웨일2차 153,154,155호 (다산동 6144-1)",남양주시,37.6258664,127.1549411
872,GS25다산캠퍼스점,"경기 남양주시 다산순환로20, 다산현대프리미어캠퍼스 EC동 20호 21호 (다산동 6143)",남양주시,37.612611,127.1528589
873,GS25다산킹덤점,"경기 남양주시 다산순환로351, 111호 (다산동 6052-1)",남양주시,37.6210052,127.1893913
874,GS25다산타워점,"경기 남양주시 다산중앙로146번길12-14, 1층 (다산동 6054-2)",남양주시,37.6012746,126.8721468
875,GS25다산테라타워점,"경기 남양주시 다산지금로202, 한강DIMC다산테라타워 R01-0006호 (다산동 6250)",남양주시,37.5956008,127.1722058
876,GS25다산파크점,"경기 남양주시 다산순환로325, 상가동 109호 110호 (다산동 6031,다산아이파크)",남양주시,37.6210052,127.1893913
877,GS25다산프리미어점,경기 남양주시 다산순환로20 (다산동 6143),남양주시,37.6210052,127.1893913
878,GS25다산플레이스점,"경기 남양주시 다산순환로424, 110호 (다산동 3563)",남양주시,37.6210052,127.1893913
879,GS25다솔원종점,"경기 부천시 소사로748번길12, 101호 (원종동 281-1, 진주빌딩)",부천시,37.5226346,126.8055153
880,GS25다원김포자이점,"경기 김포시 걸포2로60, 상가동 103호,104호 (걸포동 191, 한강메트로자이3단지)",김포시,37.6378746,126.7056207
881,GS25다원은여울점,"경기 김포시 김포한강8로173-58, 상가동 105호,106호 (마산동 639-8, 은여울마을경남아너스빌)",김포시,37.6339599,126.6430913
882,GS25단국대국제관점,"경기 용인시 수지구 죽전로152, 국제관 222호 (죽전동 1491)",용인시수지구,37.3229512,127.1279079
883,GS25단국대난파음악관점,"경기 용인시 수지구 죽전로152, B 110호 (죽전동 1491, 난파음악관)",용인시수지구,37.3229512,127.1279079
884,GS25단국대도서관점,"경기 용인시 수지구 죽전로152, 206호 (죽전동 1491, 중앙도서관)",용인시수지구,37.3229512,127.1279079
885,GS25단국대미술관점,"경기 용인시 수지구 죽전로152, 212호 (죽전동 1491, 미술관)",용인시수지구,37.3229512,127.1279079
886,GS25단국대법학관점,"경기 용인시 수지구 죽전로152, 법학관/대학원동 1층 (죽전동 1491)",용인시수지구,37.3229512,127.1279079
887,GS25단국대사회과학관점,"경기 용인시 수지구 죽전로152, B 106호 (죽전동 1491, 사회과학관)",용인시수지구,37.3229512,127.1279079
888,GS25단국대상경관점,"경기 용인시 수지구 죽전로152, 상경관 207호 (죽전동 1491)",용인시수지구,37.3229512,127.1279079
889,GS25단국대소프트웨어관점,"경기 용인시 수지구 죽전로152, 115호 (죽전동 1491, 소프트웨어ICT관)",용인시수지구,37.3229512,127.1279079
890,GS25단국대제2공학관점,"경기 용인시 수지구 죽전로152, 제2공학관 107호 (죽전동 1491)",용인시수지구,37.3229512,127.1279079
891,GS25단국대집현재점,"경기 용인시 수지구 죽전로152, B 113호 (죽전동 1491, 집현재)",용인시수지구,37.3229512,127.1279079
892,GS25단국대혜당관점,"경기 용인시 수지구 죽전로152, 혜당관 221호 (죽전동 1491)",용인시수지구,37.3229512,127.1279079
893,GS25단대오거리역점,"경기 성남시 중원구 산성대로382번길2, 1층 (금광동 4396)",성남시 중원구,37.4459553,127.1579104
894,GS25단대푸르지오점,"경기 성남시 수정구 산성대로437번길18, G동 1층 (단대동 82-7)",성남시 수정구,37.4514177,127.1575451
895,GS25단원그린빌점,"경기 안산시 단원구 광덕2로30, 상가동 101호(초지동 725, 그린빌)",안산시단원구,37.3097679,126.8130911
896,GS25단원선부점,"경기 안산시 단원구 선부광장남로109, 상가동 109호 (선부동 1078-4, 주공아파트)",안산시단원구,37.3291116,126.8127124
897,GS25달빛마을4단지점,"경기 고양시 덕양구 화중로173, 상가동 105호 (화정동 868, 달빛마을4단지)",고양시덕양구,37.6418199,126.8325346
898,GS25당정센터점,"경기 군포시 고산로211번길32, 103, 104호 (당정동 1011-3)",군포시,37.3434654,126.950729
899,GS25당하늘품점,"경기 파주시 당하길11, 1층 (당하동 203-2)",파주시,37.7464491,126.7511358
900,GS25대공원리프트점,경기 과천시 막계동366-6번지 스카이리프트 1층,과천시,37.4316681,127.0093812
901,GS25대곶능동점,경기 김포시 대곶면 대곶남로431 (대능리 364-1),김포시,37.6302959,126.5941076
902,GS25대곶대능점,"경기 김포시 대곶면 대곶남로573, 1층 일부 (대능리 57-4)",김포시,37.6382935,126.6056042
903,GS25대곶베스트점,"경기 김포시 대곶면 대명항로265, 1층 일부호 (율생리 351-11)",김포시,37.6515808,126.5906241
904,GS25대곶중앙점,경기 김포시 대곶면 대곶북로301 (송마리 1-75),김포시,37.6604309,126.5779833
905,GS25대명로드점,경기 김포시 대곶면 대명항로480 (송마리 1011-18),김포시,37.6477225,126.568228
906,GS25대부바다점,"경기 안산시 단원구 대부황금로1485, 1층 전체 (대부북동 1848-100)",안산시단원구,37.2870339,126.5741384
907,GS25대부상동점,"경기 안산시 단원구 대남로13, 1층 (대부북동 511)",안산시단원구,37.220626,126.5672858
908,GS25대부센터점,"경기 안산시 단원구 대부중앙로100, 101호 (대부북동 496-1)",안산시단원구,37.2424873,126.5847316
909,GS25대부월드점,경기 안산시 단원구 대부황금로774 (대부동동 222-1),안산시단원구,37.2390661,126.6093786
910,GS25대부유리섬점,경기 안산시 단원구 부흥로241-4 (대부남동 3-706),안산시단원구,37.2226691,126.6016043
911,GS25대부중앙점,경기 안산시 단원구 대부북동1856-61번지,안산시단원구,37.258289,126.5731267
912,GS25대부펜션타운점,"경기 안산시 단원구 참살이중앙길18-1, 1층 홈마트 (선감동 687-20)",안산시단원구,37.2328347,126.6247139
913,GS25대부해변점,"경기 안산시 단원구 대부황금로1465, 1층 101호 (대부북동 1848-116)",안산시단원구,37.2859334,126.5723876
914,GS25대부황금로점,경기 안산시 단원구 대부황금로153 (선감동 680-4),안산시단원구,37.2061333,126.645289
915,GS25대성리점,경기 가평군 청평면 경춘로89(대성리 399-25),가평군,37.6839869,127.3783002
916,GS25대야미역점,"경기 군포시 대야1로24번길2 (대야미동 654-2, 명성빌딩)",군포시,37.3277102,126.9173243
917,GS25대야위브점,"경기 시흥시 소래산길63, 1층 (대야동 303-62)",시흥시,37.4515998,126.7885231
918,GS25대야초교점,경기 시흥시 대골안길38 (대야동 466-7),시흥시,37.4463338,126.7885798
919,GS25대왕판교점,경기 성남시 수정구 달래내로40 (금토동 270-9),성남시 수정구,37.4089184,127.0960001
920,GS25대장본점,"경기 성남시 분당구 판교대장로7길6-5, 1층 일부 (대장동 89-2)",성남시 분당구,37.3666844,127.0700341
921,GS25대장으뜸점,"경기 성남시 분당구 판교대장로5길58, 상가동 101호,102호 (대장동 181-1, 더샵판교포레스트11단지)",성남시 분당구,37.3666844,127.0700341
922,GS25대장중앙점,"경기 성남시 분당구 판교대장로77, 상가동 114호 (대장동 213)",성남시 분당구,37.36561,127.068983
923,GS25대장포레스트점,"경기 성남시 분당구 판교대장로5길30, 2동,G03호 (대장동)",성남시 분당구,37.3666844,127.0700341
924,GS25대진대사랑점,"경기 포천시 호국로1025, 외 1필지 다동 (선단동 101-17)",포천시,37.8701938,127.1595723
925,GS25대한통운광주점,경기 광주시 초월읍 산수로622번길44 (신월리 340-7),광주시,37.4145496,127.308127
926,GS25대한통운용인점,경기 용인시 처인구 중부대로991 (삼가동 37-6),용인시처인구,37.2426948,127.1780406
927,GS25대한통운이천점,경기 이천시 호법면 안평로59-31 (후안리 341-6),이천시,37.2285931,127.4246781
928,GS25대한통운장지점,"경기 광주시 경충대로1939, 3층 (장지동 569-7)",광주시,37.4049934,127.2263252
929,GS25대화건영점,"경기 고양시 일산서구 성저로46번길89, 1층 (대화동 2072-7)",고양시일산서구,37.6851648,126.755791
930,GS25대화다산점,"경기 고양시 일산서구 중앙로1560, 108호 (대화동 2203-3, 다산스카이빌)",고양시일산서구,37.67601500000001,126.7486253
931,GS25대화도서관점,경기 고양시 일산서구 대산로226번길23-16 (대화동 2133),고양시일산서구,37.6803405,126.7535396
932,GS25대화마을점,"경기 고양시 일산서구 대화2로130, 1층 104호, 105호 (대화동 739-8, 문화프라자)",고양시일산서구,37.6734242,126.7353269
933,GS25대화명성점,경기 고양시 일산서구 대화로124 (대화동 863-16),고양시일산서구,37.6699583,126.734505
934,GS25대화본점,경기 고양시 일산서구 중앙로1559 (대화동 2222-3),고양시일산서구,37.6753761,126.7481894
935,GS25대화신우점,"경기 고양시 일산서구 킨텍스로283, 103호 일층일부 (대화동 2283-4)",고양시일산서구,37.6704366,126.7515686
936,GS25대화엠시티점,"경기 고양시 일산서구 킨텍스로255, 133호 (대화동 2307-12)",고양시일산서구,37.6686662,126.7496897
937,GS25대화행복점,"경기 고양시 일산서구 호수로856번길34-2, 1층(대화동 2276)",고양시일산서구,37.6717994,126.7488117
938,GS25더샵광교점,"경기 수원시 장안구 송정로190, 2동 2호 (조원동 431-2)",수원시 장안구,37.2988578,127.0169402
939,GS25덕계금광점,"경기 양주시 평화로1429번길89-53, 상가 101호 (덕계동 646-2, 금광아파트)",양주시,37.820989,127.0404701
940,GS25덕계센터점,경기 양주시 평화로1435번길10 (덕계동 465-11),양주시,37.8194435,127.0460862
941,GS25덕계신우점,경기 양주시 평화로1416번길58-15 (덕계동 411-85),양주시,37.8167274,127.0491525
942,GS25덕계평화점,"경기 양주시 평화로1429번길81, 1층 (덕계동 656-6)",양주시,37.8213442,127.0433709
943,GS25덕계행복점,"경기 양주시 회천중앙로221, 101호 (덕계동 247-5)",양주시,37.8179451,127.0518912
944,GS25덕계현진점,경기 양주시 고덕로159 (덕계동 856),양주시,37.80697929999999,127.0609279
945,GS25덕성산단점,"경기 용인시 처인구 이동읍 덕성산단2로6번길30, 1층 (덕성리 1267-4)",용인시처인구,35.3141541,129.1855892
946,GS25덕소스타점,경기 남양주시 와부읍 덕소로119 (덕소리 541-12),남양주시,37.583637,127.2125374
947,GS25덕소역점,"경기 남양주시 와부읍 덕소로116번길20 (덕소리 600-14, 세양청마루)",남양주시,37.5856234,127.2096462
948,GS25덕소월드점,"경기 남양주시 와부읍 덕소로35, (덕소주공3단지A상가101호) (덕소리 604-26, 주공아파트)",남양주시,37.5885392,127.2073497
949,GS25덕양관산점,경기 고양시 덕양구 통일로752 (관산동 178-29),고양시덕양구,37.6875228,126.8668998
950,GS25덕양꽃우물점,"경기 고양시 덕양구 화신로340 (단독근린생활시설동 953, 별빛마을7단지아파트)",고양시덕양구,37.6348527,126.8286589
951,GS25덕양대곡롯데점,"경기 고양시 덕양구 지도로103번길85, 1층 (토당동 289-10)",고양시덕양구,37.6252512,126.818877
952,GS25덕양도래울점,"경기 고양시 덕양구 도래울로86, 상가 111,112호 (도내동 1010, 엘에이치원흥도래울마을3단지)",고양시덕양구,37.6359635,126.871785
953,GS25덕양미도점,"경기 고양시 덕양구 마상로189, 1층 (성사동 422-3)",고양시덕양구,37.6569273,126.8434294
954,GS25덕양성사점,"경기 고양시 덕양구 고양대로1384번길9, 6 (성사2동 722-3, 신원당프라자1층6호,7호)",고양시덕양구,37.6535217,126.8376752
955,GS25덕양세솔점,"경기 고양시 덕양구 삼송로205번길5, 1층 (삼송동 60-4)",고양시덕양구,37.6538865,126.8963956
956,GS25덕양용두점,"경기 고양시 덕양구 서오릉로532, 가동 코너 (용두동 436-6)",고양시덕양구,37.6302993,126.8823815
957,GS25덕양용현로점,경기 고양시 덕양구 용현로53번길70 (행신동 743-1),고양시덕양구,37.6183987,126.8356149
958,GS25덕양원당점,"경기 고양시 덕양구 원당로99-1, B동 1층 101호 (주교동 577-39, 세움아트빌)",고양시덕양구,37.6609549,126.837122
959,GS25덕양원흥점,경기 고양시 덕양구 도래울3로20 (도내동 1030-8),고양시덕양구,37.6329341,126.8732218
960,GS25덕양주교점,"경기 고양시 덕양구 마상로134번길60, 1층 일부 (주교동 617-7)",고양시덕양구,37.6575601,126.8352166
961,GS25덕양통일로점,"경기 고양시 덕양구 통일로1108번길190, 1층 일부 (내유동 431-1)",고양시덕양구,37.7148739,126.8516458
962,GS25덕양푸른점,"경기 고양시 덕양구 혜음로99, 1층 (고양동 7-2)",고양시덕양구,37.7091297,126.9014413
963,GS25덕양휴레스트점,"경기 고양시 덕양구 호국로834번길55-7, 1층 103, 104호 (성사동 860)",고양시덕양구,37.6586256,126.8423196
964,GS25덕양흥도로점,"경기 고양시 덕양구 흥도로455, 나동 1층 (성사동 243-4)",고양시덕양구,37.644957,126.8516047
965,GS25덕은드림점,"경기 고양시 덕양구 으뜸로124, 드림코어테라스 제1층 107호 (덕은동 323-2)",고양시덕양구,37.5791651,126.8698208
966,GS25덕은중앙점,"경기 고양시 덕양구 대덕산2길14, (지번 주소 미부여) (덕은동)",고양시덕양구,37.5866692,126.8638135
967,GS25덕이고점,경기 고양시 일산서구 하이파크1로77 (덕이동 1604),고양시일산서구,37.6793236,126.6816534
968,GS25덕이대림점,"경기 고양시 일산서구 장자길117, 101동 102호 (덕이동 730-3)",고양시일산서구,37.700632,126.741503
969,GS25덕이로드점,"경기 고양시 일산서구 덕이로212, 1층 일부 (덕이동 1047-1, 백송프라자)",고양시일산서구,37.6966049,126.7393407
970,GS25덕이사랑점,"경기 고양시 일산서구 하이파크3로61, 2동 101호(덕이동 1535, 신동아파트4단지)",고양시일산서구,37.6976476,126.7507144
971,GS25덕이송윤점,경기 고양시 일산서구 덕산로314 (덕이동 1044-16),고양시일산서구,37.6961696,126.7374001
972,GS25덕이포인트점,"경기 고양시 일산서구 덕이로276, 1층 일부 (덕이동 1108-2)",고양시일산서구,37.7008428,126.7341752
973,GS25덕이한소망점,"경기 고양시 일산서구 하이파크로143, 외 1필지 B02 (덕이동 338-38)",고양시일산서구,37.6952514,126.7029412
974,GS25덕정두리점,"경기 양주시 회정로134, 112,113호 (덕정동 208-6, 두리테크덕정타운)",양주시,37.8375086,127.0659955
975,GS25덕정역점,"경기 양주시 화합로1363, 103호 (덕정동 350-95)",양주시,37.8433996,127.0625091
976,GS25덕정은동점,"경기 양주시 화합로1426번길39, 상가동 101호 (덕정동 164, 은동마을)",양주시,37.8391712,127.0681773
977,GS25덕정제일점,경기 양주시 덕정길38 (덕정동 131-32),양주시,37.8438356,127.0643067
978,GS25덕천래미안점,"경기 안양시 만안구 안양천서로177, 1동 123호 (안양동 148-1, 래미안안양메가트리아)",안양시만안구,37.3940546,126.9336524
979,GS25덕평IC점,경기 이천시 마장면 덕평로812(덕평리 517-4),이천시,37.2303831,127.3668323
980,GS25덕풍한솔점,"경기 하남시 덕산로68, 1층 (덕풍동 558-27)",하남시,37.5352836,127.1961823
981,GS25도곡행운점,경기 남양주시 와부읍 덕소로242-21 (도곡리 1042-6),남양주시,37.5785057,127.2238462
982,GS25도곡효담점,"경기 남양주시 와부읍 덕소로269, 101호 (도곡리 1058-3, 동성프라자)",남양주시,37.5780319,127.2256512
983,GS25도농부영점,경기 남양주시 미금로56번길37 (도농동 25-17),남양주시,37.6099349,127.1559608
984,GS25도당번창점,"경기 부천시 도약로298번길44, 1층 (도당동 271-1)",부천시,37.508525,126.7826202
985,GS25도당부천로점,"경기 부천시 부천로274, 1층 (도당동 184-1)",부천시,37.5085358,126.7858571
986,GS25도당성원점,"경기 부천시 수도로206번길31-3, 102호 (도당동 56-14, 성원빌라)",부천시,37.5188424,126.7884639
987,GS25도당장미점,"경기 부천시 원미구 삼작로256번길61, 1층(도당동 67-28)",부천시,37.5173156,126.7900043
988,GS25도당타운점,"경기 부천시 삼작로292번길21-18, 101호 (도당동 129)",부천시,37.519108,126.7947932
989,GS25도척IC점,경기 광주시 도척면 도척로637 (유정리 245-1),광주시,37.2974476,127.3301136
990,GS25도척리조트점,경기 광주시 도척면 독고개길302번길29 (도웅리 409),광주시,37.3388218,127.3019772
991,GS25도척안길점,경기 광주시 도척면 노곡로40 (노곡리 238-2),광주시,37.3028717,127.3309826
992,GS25도촌동강점,"경기 성남시 중원구 도촌남로27, 109호(도촌동 566, 동강프라자)",성남시 중원구,37.4144711,127.1506072
993,GS25도촌휴먼시아점,경기 성남시 중원구 도촌남로148 (도촌동 708),성남시 중원구,37.4112492,127.1650723
994,GS25동곤지암점,"경기 광주시 곤지암읍 광여로847, 102호 (건업리 336-1)",광주시,37.3880387,127.4065226
995,GS25동두천강변점,경기 동두천시 원터강변로29 (동두천동 211-9),동두천시,37.9241974,127.0538669
996,GS25동두천로드점,경기 동두천시 평화로3170(하봉암동 115),동두천시,37.9687948,127.0681494
997,GS25동두천법원점,경기 동두천시 지행로107 (지행동 289-1),동두천시,37.8925229,127.059126
998,GS25동두천보산점,경기 동두천시 동광로154 (보산동 407-48),동두천시,37.9136082,127.0621789
999,GS25동두천부영점,"경기 동두천시 동두천로189, 101호 (생연동 715-1, 부영아파트상가동101호,102호)",동두천시,37.8981167,127.054119
1000,GS25동두천사동점,"경기 동두천시 생연로62, 상가동 101,102호 (생연동 714-2, 부영아파트)",동두천시,37.8983979,127.0502154
1001,GS25동두천샤인점,"경기 동두천시 행선로123-18, 1층(생연동 348-4)",동두천시,37.89809340000001,127.0617919
1002,GS25동두천소요점,경기 동두천시 봉동로34 (상봉암동 226-7),동두천시,37.9466699,127.0573676
1003,GS25동두천송내점,"경기 동두천시 이담로20 (송내동 664-6, 상가B동 101-104호)",동두천시,37.8872072,127.0506172
1004,GS25동두천스타점,경기 동두천시 장고갯로269 (보산동 358-5),동두천시,37.9162854,127.0589826
1005,GS25동두천신천점,"경기 동두천시 생연로26, 상가 105호 (지행동 691, 부영아파트)",동두천시,37.8951134,127.049497
1006,GS25동두천월드점,"경기 동두천시 장고갯로106, 101호 (생연1동 231, 월드메르디앙상가동 101호-102호)",동두천시,37.9046014,127.0646374
1007,GS25동두천점,경기 동두천시 강변로296번길24 (지행동 665),동두천시,37.8971048,127.0468517
1008,GS25동두천조흥점,"경기 동두천시 상패로56, 1층(상패동 53-14)",동두천시,37.9067209,127.0470552
1009,GS25동두천지행점,"경기 동두천시 지행로52, 1층 제103호(지행동 718-3, 송내프라자)",동두천시,37.8920394,127.0529905
1010,GS25동두천타운점,"경기 동두천시 못골로31, 102호 (생연동 272-9, 동훈아트빌라)",동두천시,37.9016563,127.0660368
1011,GS25동두천평화점,"경기 동두천시 평화로2349번길15, 1층 (생연동 754-12)",동두천시,37.8976496,127.0564342
1012,GS25동두천현대점,"경기 동두천시 중앙로110-17, 104호(지행동 719-3, 현대프라자)",동두천시,37.8913484,127.0533302
1013,GS25동두천효원점,"경기 동두천시 지행로60, 1층 103호 (지행동 721, 효원월드타워)",동두천시,37.8920288,127.0538012
1014,GS25동두천휴먼빌점,"경기 동두천시 행선로52, 101호 (지행동 308, 지행역휴먼빌아파트101호,102호)",동두천시,37.8936629,127.0615909
1015,GS25동백동문점,"경기 용인시 기흥구 동백죽전대로455-10, 101호(동백동 689, 동문굿모닝힐)",용인시기흥구,37.2886888,127.1624135
1016,GS25동백두산위브점,"경기 용인시 기흥구 동백죽전대로507, 상가동 124호 (동백동 419-1)",용인시기흥구,37.2839236,127.1506219
1017,GS25동백여강점,"경기 용인시 기흥구 동백7로77, 104호 (동백동 598-7, 여강빌딩)",용인시기흥구,37.2818444,127.1597885
1018,GS25동백역점,경기 용인시 기흥구 동백중앙로175 (중동 853-1),용인시기흥구,37.2699343,127.1541638
1019,GS25동백원룸점,경기 용인시 기흥구 동백죽전대로527번길98-41 (중동 1111),용인시기흥구,37.2653851,127.1498165
1020,GS25동백월드점,"경기 용인시 기흥구 동백죽전대로281, 상가동 106호 (중동 819, 참솔마을월드메르디앙)",용인시기흥구,37.2648552,127.1538283
1021,GS25동백주공점,"경기 용인시 기흥구 동백7로53, 상가동 106호 (동백동 602, 제)",용인시기흥구,37.2840116,127.1577695
1022,GS25동백중앙점,"경기 용인시 기흥구 동백중앙로273, 109호 (중동 830-2, 동백훼밀리프라자2 1층)",용인시기흥구,37.2769878,127.1533722
1023,GS25동백코아루점,"경기 용인시 기흥구 동백1로8, 상가동 101호 (중동 1046, 초당마을코아루아파트)",용인시기흥구,37.2633455,127.1582015
1024,GS25동백타운점,"경기 용인시 기흥구 동백중앙로193, 106호 (중동 849-1, 동창프라자)",용인시기흥구,37.2710224,127.1525855
1025,GS25동백평촌점,경기 용인시 기흥구 동백동633-10번지,용인시기흥구,37.279438,127.1536493
1026,GS25동백호수점,"경기 용인시 기흥구 동백5로23, 105호(중동 831-3, 명진프라자)",용인시기흥구,37.2764385,127.1522835
1027,GS25동부동점,경기 용인시 처인구 금령로168(마평동 634-2),용인시처인구,37.2342005,127.2147552
1028,GS25동삭도은점,"경기 평택시 동삭1로22번길40, 상가동 107, 108호 (동삭동 342, 지제더샵센트럴파크)",평택시,37.0107291,127.1028054
1029,GS25동삭자이점,"경기 평택시 상서재로4길13, 상가동 14,15호 (동삭동 33, 평택센트럴자이2단지)",평택시,37.0164452,127.1017718
1030,GS25동산타운점,"경기 평택시 특구로43번길94, 1층 코너 (서정동 792-11)",평택시,37.0683724,127.0594483
1031,GS25동서울대점,경기 성남시 수정구 복정로72번길4(복정동 686),성남시 수정구,37.4591151,127.1268378
1032,GS25동아대기숙사점,경기 안성시 삼죽면 동아예대길47(진촌리 632-18),안성시,37.0587654,127.3583171
1033,GS25동아방송대점,경기 안성시 삼죽면 동아예대길46(진촌리 559-6),안성시,37.0561353,127.3630683
1034,GS25동우기숙사점,"경기 평택시 안중읍 덕우로84-3, 1층 복지동 (학현리 22-21, 동우화인켐기숙사)",평택시,36.9983905,126.9294746
1035,GS25동우화인켐점,"경기 평택시 포승읍 포승공단로117번길35, 동우화인켐내 복지관 1층 (원정리 1177)",평택시,36.980938,126.8422282
1036,GS25동천손골점,"경기 용인시 수지구 동천로406, 101호 (동천동 618-3)",용인시수지구,37.3441525,127.0613511
1037,GS25동천수진점,"경기 용인시 수지구 손곡로83, 상가110호, 109호(일부) (동천동 873-3)",용인시수지구,37.3359181,127.0931923
1038,GS25동천유타워점,"경기 용인시 수지구 신수로767, 1층 113호 (동천동 899, 분당수지 U-TOWER)",용인시수지구,37.3343261,127.1022973
1039,GS25동천자이점,"경기 용인시 수지구 고기로89, 상가동 104호 (동천동 105-3, 동천자이아파트)",용인시수지구,37.34549579999999,127.0895829
1040,GS25동천필타운점,"경기 용인시 수지구 신수로783번길12, 103호, 104호 (동천동 185-14, 동천필하우스)",용인시수지구,37.3399283,127.1024614
1041,GS25동천현대점,"경기 용인시 수지구 동천로83, 101호(동천동 351, 윤창빌딩)",용인시수지구,37.3389579,127.0944355
1042,GS25동탄IT점,경기 화성시 동학산1길7(석우동 13-7),화성시,37.2140802,127.085344
1043,GS25동탄계룡점,"경기 화성시 동탄대로시범길236, 104호 (청계농, 시범계룡리슈빌아파트) (청계동 6, 근린생활시설동)",화성시,37.4116371,127.0328373
1044,GS25동탄골드점,"경기 화성시 동탄지성로11, 113,114,115호 (반송동 93-2)",화성시,37.20448409999999,127.072774
1045,GS25동탄공원점,"경기 화성시 동탄공원로2길21, 101호(반송동 53-5)",화성시,37.2060556,127.0619094
1046,GS25동탄금강점,"경기 화성시 동탄첨단산업1로27, 기숙사동 94,95호 (영천동 281)",화성시,37.2040251,127.066971
1047,GS25동탄나래울점,"경기 화성시 여울로2길34, 1층 (능동 1138-1)",화성시,37.2033074,127.0527485
1048,GS25동탄나루점,"경기 화성시 동탄솔빛로48, 112(112호,113호) (반송동 217-6, 거택프라자)",화성시,37.1930977,127.0733401
1049,GS25동탄남광장점,"경기 화성시 동탄문화센터로71-17, 103호 (반송동 107-4, 연세프라자)",화성시,37.2002276,127.0728103
1050,GS25동탄노작점,"경기 화성시 노작로2길2, 1층 (반송동 125-8)",화성시,37.1955402,127.081159
1051,GS25동탄대박점,"경기 화성시 동탄순환대로249, 1층 (산척동 724-3)",화성시,37.2040251,127.066971
1052,GS25동탄대우점,"경기 화성시 동탄반석로264, 104호(석우동 49, 동탄예당마을아파트)",화성시,37.2096755,127.078695
1053,GS25동탄더원점,"경기 화성시 지산1길25-1, 103호 (영천동 산27-38)",화성시,37.1994932,126.8311887
1054,GS25동탄데시앙점,"경기 화성시 동탄숲속로68, 1층(능동 1131, 숲속마을자연앤데시앙아파트)",화성시,37.2069967,127.054699
1055,GS25동탄레이크,"경기 화성시 동탄대로9길20, 동탄2레이크빌아파트 상가동 102호, 103호 (송동 681-60)",화성시,37.2040251,127.066971
1056,GS25동탄롯데점,"경기 화성시 동탄역로150, A동 117호 (오산동 산88-3)",화성시,37.199327,127.0970177
1057,GS25동탄르보아점,경기 화성시 오산동967-3번지 우성르보아시티오피스텔 113호,화성시,37.2032078,127.098063
1058,GS25동탄메가점,"경기 화성시 동탄대로636-3, C동 (영천동, 메가비즈타워)",화성시,37.2040251,127.066971
1059,GS25동탄모아점,"경기 화성시 동탄숲속로98, 상가동 117호 (능동 1132, 동탄숲속마을모아미래도1단지)",화성시,37.20646620000001,127.0574342
1060,GS25동탄목동점,경기 화성시 목동216-5번지 힐스테이트동탄아파트 상가 136호,화성시,37.1846821,127.1209825
1061,GS25동탄미래도점,"경기 화성시 동탄공원로21-11 (능동 1151, 동탄푸른마을모아미래도제상가에이동106호,107호)",화성시,37.20056,127.0573826
1062,GS25동탄반도점,"경기 화성시 동탄대로시범길134, 1119호 (청계동 536)",화성시,37.3925523,127.0114457
1063,GS25동탄반석로점,경기 화성시 동탄중심상가1길40 (반송동 103-11),화성시,37.20144,127.0712533
1064,GS25동탄반송점,"경기 화성시 동탄공원로1길12-7, 1층 110호 (반송동 66-1, 그린주차빌딩)",화성시,37.2024376,127.0601845
1065,GS25동탄방교리1점,"경기 화성시 동탄기흥로31, 108호 (방교동 844-4)",화성시,37.180257,127.092458
1066,GS25동탄부명점,경기 화성시 동탄순환대로29길31 (영천동 673-1),화성시,37.2040251,127.066971
1067,GS25동탄북광장점,"경기 화성시 동탄중심상가2길26-15, 1층 103호 (반송동 87-4, 지성프라자)",화성시,37.20656719999999,127.0742468
1068,GS25동탄뷰파크점,"경기 화성시 동탄원천로382-37, 상가동 104호 , 105호 (반월동 944,SK뷰파크아파트)",화성시,37.2154883,127.0614316
1069,GS25동탄블루체점,"경기 화성시 큰재봉길23-4, 101호 (석우동 33-2, 석진블루체오피스텔)",화성시,37.2178598,127.0789966
1070,GS25동탄비스타점,"경기 화성시 동부대로1062, 상가동 (오산동 984, 동탄역동원로얄듀크비스타3차)",화성시,37.1964117,127.0889968
1071,GS25동탄빌리지점,경기 화성시 동탄대로21가길12 (영천동 657-3),화성시,37.2040251,127.066971
1072,GS25동탄산단점,"경기 화성시 동탄면 동탄기흥로257번가길20-8, GS25동탄산단점 (방교리 769-7)",화성시,37.1769687,127.0924892
1073,GS25동탄산업시티점,"경기 화성시 동탄기흥로147-17, 111호 (방교동 829-2)",화성시,37.1944769,127.0937082
1074,GS25동탄산척점,"경기 화성시 동탄순환대로10길20, 101,102호 (산척동 750, 동탄호수공원경기행복주택)",화성시,37.2040251,127.066971
1075,GS25동탄상록점,"경기 화성시 동탄대로22길9, 106호 (영천동 662, 동탄역센트럴상록아파트)",화성시,37.2040251,127.066971
1076,GS25동탄새강점,"경기 화성시 10용사3길32, 상가남쪽2칸 (반송동 157-3)",화성시,37.192062,127.0672052
1077,GS25동탄서후점,"경기 화성시 효행로1350번길60, 6호,7호 (반월동 370-1)",화성시,37.2272497,127.0709785
1078,GS25동탄성심병원점,"경기 화성시 큰재봉길7, B1F (석우동 40)",화성시,37.2165578,127.0800512
1079,GS25동탄세림점,"경기 화성시 동탄중심상가2길29, 105호(반송동 88-6, 세림프라자)",화성시,37.2061199,127.0738591
1080,GS25동탄센트럴점,"경기 화성시 동탄공원로3길27, 1층 일부 (반송동 44-1)",화성시,37.2086076,127.0613528
1081,GS25동탄솔빛로점,"경기 화성시 동탄솔빛로65, 1층 105호 (반송동 219-3, 정림프라자)",화성시,37.1945361,127.0741763
1082,GS25동탄시그너스점,"경기 화성시 동탄역로196, 183,184호 (오산동 967-62, 동탄역예미지시그너스)",화성시,37.199327,127.0970177
1083,GS25동탄신리천점,"경기 화성시 동탄대로14길5-48, 102호 103호 (오산동 921-59)",화성시,37.1538045,127.0741778
1084,GS25동탄신안점,"경기 화성시 동탄청계로303-13, 상가동 102호 (청계동 547, 신안인스빌리베라2차)",화성시,37.3943001,127.0089415
1085,GS25동탄신유점,경기 화성시 동탄대로19길10 (오산동 969-4),화성시,37.1512175,127.0752332
1086,GS25동탄아이비점,경기 화성시 동탄광역환승로63 (오산동 967-543),화성시,37.1555702,127.0715816
1087,GS25동탄아이파크점,"경기 화성시 동탄지성로42, 상가동 102호 (반송동 85, 동탄시범한빛마을동탄아이파크)",화성시,37.2064299,127.0704013
1088,GS25동탄애비뉴점,"경기 화성시 동탄역로196, 201동 1층 142호 (오산동 967-62, 오피스텔동)",화성시,37.199327,127.0970177
1089,GS25동탄에이스점,"경기 화성시 동탄영천로108-10, 상가동 109,110호 (영천동 514-5)",화성시,37.2128779,127.1052435
1090,GS25동탄역점,"경기 화성시 동탄오산로86-3, 111호 (오산동 969-1)",화성시,37.1614095,127.0815441
1091,GS25동탄영천점,"경기 화성시 지산1길4-2, 102호 (영천동 695-1)",화성시,36.1343664,128.3447914
1092,GS25동탄예당점,"경기 화성시 동탄반석로230, 상가동 101호, 102호 (석우동 56)",화성시,37.2081926,127.0756081
1093,GS25동탄우남점,"경기 화성시 동탄원천로354-11, 2동 111호 (능동 1065-2, 동탄퍼스트빌스타)",화성시,37.2182465,127.0587253
1094,GS25동탄우미린점,"경기 화성시 동탄대로181, 상가 102호, 103호 (송동 681-535, 동탄린스트라우스더레이크)",화성시,37.2040251,127.066971
1095,GS25동탄월드점,"경기 화성시 동탄중앙로187, 상가 101호(반송동 80, 월드반도)",화성시,37.2025345,127.0658282
1096,GS25동탄위브점,"경기 화성시 동탄공원로21-40, 104호(능동 1137, 두산위브아파트)",화성시,37.2032541,127.0543086
1097,GS25동탄유보라점,"경기 화성시 동탄순환대로26길55, 상가 1층 203호 (영천동 716)",화성시,37.2040251,127.066971
1098,GS25동탄이스트점,"경기 화성시 동탄순환대로2길13, 103호 (장지동 913, 동탄2엘에이치행복주택28단지)",화성시,37.4896778,127.1374566
1099,GS25동탄잎새점,경기 화성시 동탄반송1길36-22(반송동 36-8),화성시,37.2103464,127.0638189
1100,GS25동탄주공점,"경기 화성시 동탄순환대로24길101, 상가2동 101호/102호 (영천동 722)",화성시,37.2040251,127.066971
1101,GS25동탄줌타워점,"경기 화성시 동탄대로700, 샹보르줌타워 상가동 145호,146호 (영천동 95)",화성시,37.2144256,127.1029644
1102,GS25동탄중동점,"경기 화성시 왕배산1길3-13, 1층 (목동 339)",화성시,37.18112120000001,127.1038616
1103,GS25동탄중앙점,"경기 화성시 동탄반송2길31-1, 1층 (반송동 30-5)",화성시,37.209714,127.0652056
1104,GS25동탄중흥점,경기 화성시 동탄산척로2가길33-1 (산척동 712-7),화성시,37.2040251,127.066971
1105,GS25동탄치동천점,경기 화성시 동탄치동천로2길4-2 (영천동 752-1),화성시,37.3422582,127.1019574
1106,GS25동탄카림점,"경기 화성시 동탄대로시범길134, 1081호 (청계동 536, 동탄역시범반도유보라아이비파크4.0)",화성시,37.3925523,127.0114457
1107,GS25동탄칸타빌점,"경기 화성시 동탄순환대로22길14, 2동 111호 (청계동 558, 동탄대원칸타빌포레지움근생)",화성시,37.395169,127.0056425
1108,GS25동탄타운점,경기 화성시 영천동651-560번지,화성시,37.2058535,127.1129513
1109,GS25동탄타워점,"경기 화성시 동탄첨단산업1로27, A동 2호 (영천동 281)",화성시,37.2040251,127.066971
1110,GS25동탄테크노점,"경기 화성시 동탄순환대로830, SKV1 1층 135호 (영천동 397)",화성시,37.2040251,127.066971
1111,GS25동탄파크점,경기 화성시 영천동651-1371번지 동탄파크자이 41호,화성시,37.2119157,127.1124695
1112,GS25동탄포레나점,"경기 화성시 동탄순환대로4길11, 105호107호 (장지동 921, 동탄호수공원리더스포레)",화성시,37.2040251,127.066971
1113,GS25동탄포레점,경기 화성시 목동373번지 센트럴포레아파트 상가동 104호 105호,화성시,37.1876617,127.1260348
1114,GS25동탄포스코점,"경기 화성시 동탄대로시범길19, 상가 102호 청계동, 포스코더? (청계동, 단지내)",화성시,37.3934023,127.0063163
1115,GS25동탄푸르지오점,"경기 화성시 동탄순환대로26길81, B207호 / B208호 (영천동 718, 동탄행복마을푸르지오)",화성시,37.2040251,127.066971
1116,GS25동탄플로레스점,"경기 화성시 동탄대로537, D동 1005호 (오산동 1019, 라스플로레스)",화성시,37.2040251,127.066971
1117,GS25동탄하늘점,"경기 화성시 동탄중앙로51-1, 상가동 103호 (반송동 200, 동탄나루마을한화꿈에그린아파트)",화성시,37.191061,127.072848
1118,GS25동탄하우스점,"경기 화성시 동탄순환대로12길67, 단지내 상가동 1층 106호 (산척동 743)",화성시,37.2040251,127.066971
1119,GS25동탄한빛길점,"경기 화성시 동탄시범한빛길35, 101호 (반송동 18-1)",화성시,37.209738,127.0675588
1120,GS25동탄한화점,"경기 화성시 동탄대로시범길20, 1층 상가동 (청계동 520, 동탄역시범한화꿈에그린프레스티지)",화성시,37.39351,127.0138024
1121,GS25동탄행복점,경기 화성시 목동산24번지,화성시,37.1994932,126.8311887
1122,GS25동탄행복주유소점,"경기 용인시 기흥구 용구대로1625, 동탄행복주유소 (공세동 161-7)",용인시기흥구,37.2816038,127.1064881
1123,GS25동탄헤리움점,"경기 화성시 동탄하나1길61, 103호 (능동 1065-1)",화성시,37.2187743,127.0602167
1124,GS25동탄호수계룡점,경기 화성시 동탄대로3길36 (장지동 924),화성시,37.2040251,127.066971
1125,GS25동탄호수길점,"경기 화성시 동탄순환대로9길12, 상가동 101호 (산척동 497, 더레이크시티부영아파트6단지)",화성시,37.2040251,127.066971
1126,GS25동탄호수점,"경기 화성시 동탄순환대로3길27-39, 1층 (송동 712-2)",화성시,37.2040251,127.066971
1127,GS25동탄휴먼시아점,"경기 화성시 동탄중앙로101, 나상가동 103,104호 (반송동 159)",화성시,37.1944804,127.0698258
1128,GS25동탄힐즈점,"경기 화성시 동탄대로12길71, 105호 (오산동 967-2259, 화성동탄2센트럴힐즈동탄아파트)",화성시,37.1548608,127.0720158
1129,GS25동패사랑점,"경기 파주시 숲속노을로60, LH희망상가 1층 4호,5호 (동패동 568-1)",파주시,37.7266272,126.7093118
1130,GS25동패스쿨점,경기 파주시 동패동1981번지,파주시,37.7079656,126.7355578
1131,GS25두원공대파주점,경기 파주시 파주읍 주라위길159 (봉암리 산114-1),파주시,37.8150094,126.8037651
1132,GS25둔전영재점,경기 용인시 처인구 포곡읍 포곡로125 (둔전리 190-11),용인시처인구,37.2704009,127.2187846
1133,GS25둔전제일점,"경기 용인시 처인구 포곡읍 포곡로108번길7, 1층(둔전리 150)",용인시처인구,37.26876,127.2182469
1134,GS25등원희망점,경기 파주시 조리읍 등원로7 (등원리 256-2),파주시,37.7562965,126.8025716
1135,GS25디자인클러스터점,"경기 광명시 일직로43, GIDC광명역 L81호 (일직동 514)",광명시,37.4229034,126.8870783
1136,GS25라페스타점,경기 고양시 일산동구 중앙로1275번길60-21 (장항동 756-3),고양시일산동구,37.6597634,126.7688042
1137,GS25레이크시티점,"경기 화성시 동탄순환대로7길21, 더레이크부영4단지 상가 101-1호, 101-2호 (산척동 593)",화성시,37.2040251,127.066971
1138,GS25레이킨스점,"경기 고양시 일산서구 호수로817, 124호(대화동 2602, 레이킨스몰)",고양시일산서구,37.667442,126.7523098
1139,GS25르노코리아연구소점,경기 용인시 기흥구 탑실로61 (공세동 447-4),용인시기흥구,37.2417314,127.1142973
1140,GS25르파비스점,"경기 화성시 동탄순환대로20길115, 상가동 102103호 (목동 262)",화성시,37.2040251,127.066971
1141,GS25마도두곡점,"경기 화성시 마도면 화성로790번길18, 1층 (두곡리 330)",화성시,37.2063187,126.7771007
1142,GS25마도로드점,경기 화성시 마도면 송정로272 (송정리 101-4),화성시,37.216379,126.7852801
1143,GS25마도명륜점,경기 화성시 마도면 마도로520 (청원리 215-1),화성시,37.1883483,126.7604336
1144,GS25마도바이오점,"경기 화성시 마도면 청원산단로203, 104호 (청원리 1249)",화성시,37.1700785,126.7672944
1145,GS25마도사거리점,경기 화성시 마도면 송정로4 (두곡리 344-3),화성시,37.2074645,126.7755851
1146,GS25마도산단점,"경기 화성시 마도면 청원로277, 1층 104호 (쌍송리 625, 파인빌)",화성시,37.1811743,126.7742211
1147,GS25마도청운빌점,"경기 화성시 마도면 마도공단로3길7-9, 1층 (쌍송리 669-1)",화성시,37.1835984,126.7871254
1148,GS25마도타운점,경기 화성시 마도면 마도북로390-27 (석교리 238-71),화성시,37.1962133,126.779218
1149,GS25마두강촌점,"경기 고양시 일산동구 강석로110, , 제분산상가동 105,106호 (마두동 789)",고양시일산동구,37.6511596,126.7811193
1150,GS25마두건영점,경기 고양시 일산동구 경의로375-119 (마두동 865-7),고양시일산동구,37.6623783,126.7895485
1151,GS25마두광장점,"경기 고양시 일산동구 장백로184, 106호(장항2동 895-1)",고양시일산동구,37.6512347,126.7771484
1152,GS25마두백마점,"경기 고양시 일산동구 일산로208, 111호 (마두동 729, 한일파킹타운)",고양시일산동구,37.6549071,126.7901503
1153,GS25마두역점,"경기 고양시 일산동구 중앙로1160, 112호 (마두동 805-1)",고양시일산동구,37.6510674,126.778741
1154,GS25마두연수원점,경기 고양시 일산동구 장백로200 (장항동 892),고양시일산동구,37.6525358,126.7763701
1155,GS25마두으뜸점,경기 고양시 일산동구 정발산로196번길7-2(마두1동 882-7),고양시일산동구,37.6628726,126.7874017
1156,GS25마명제일점,경기 포천시 내촌면 부마로285(마명리 273-14),포천시,37.7671199,127.1953049
1157,GS25마북누리점,"경기 용인시 기흥구 용구대로2370, 102호(마북동 475-1)",용인시기흥구,37.2978682,127.1088683
1158,GS25마북이편한점,"경기 용인시 기흥구 마북로208, 상가동 101호 (마북동 636, 교동마을마북이-편한세상)",용인시기흥구,37.306559,127.1285733
1159,GS25마산동일점,"경기 김포시 김포한강8로173-88, B동 101호 102호 (마산동 638-4, 한강신도시동일스위트더파크뷰1단지)",김포시,37.6419003,126.6426104
1160,GS25마산퍼스트점,"경기 김포시 김포한강8로148번길85, 1층 (마산동 653-15)",김포시,37.6314566,126.6386037
1161,GS25마석대림점,"경기 남양주시 화도읍 비룡로110-17, 203호 (마석우리 448-1)",남양주시,37.6622243,127.3050433
1162,GS25마석본점,"경기 남양주시 화도읍 경춘로2102-26, 상가동 지하 105호 (마석우리 71)",남양주시,37.650917,127.3194006
1163,GS25마석사랑점,경기 남양주시 화도읍 비룡로55번길3-12(마석우리 558-10),남양주시,37.6567628,127.3005881
1164,GS25마석신도점,"경기 남양주시 화도읍 비룡로323, 상가동 신도마트 (가곡리 598)",남양주시,37.6793578,127.3003703
1165,GS25마석역점,경기 남양주시 화도읍 마석중앙로99-2(마석우리 282-2),남양주시,37.6520801,127.310836
1166,GS25마석우리점,경기 남양주시 화도읍 마석로61번길18-1(마석우리 379-14),남양주시,37.6562747,127.3036674
1167,GS25마석으뜸점,"경기 남양주시 화도읍 비룡로158번길9, 1층 (묵현리 31-11)",남양주시,37.66611049999999,127.3026132
1168,GS25마석주공점,"경기 남양주시 화도읍 맷돌로91번길7, 상가동 101호 (마석우리 531, 마석주공아파트)",남양주시,37.658865,127.299826
1169,GS25마석타운점,"경기 남양주시 화도읍 비룡로99번길28, 1층 (묵현리 86)",남양주시,37.662976,127.2975191
1170,GS25마석푸르지오점,"경기 남양주시 화도읍 비룡로33번길19, 상가동 106호 (마석우리 520-44, 마석힐즈파크푸르지오)",남양주시,37.6549922,127.2996527
1171,GS25마송주공점,"경기 김포시 통진읍 김포대로2250번길23-14, 상가동 103호 (마송리 493, 소망마을주공아파트)",김포시,37.6915942,126.595501
1172,GS25마송현대점,"경기 김포시 통진읍 담터로18, 상가동 107호 (마송리 134, 현대1차아파트)",김포시,37.6925695,126.5938011
1173,GS25마장사랑점,"경기 파주시 광탄면 보광로956, 1층 전체 (마장리 409)",파주시,37.778981,126.8790693
1174,GS25마장센터점,"경기 이천시 마장면 마장로24, 101호 (오천리 56-29)",이천시,37.2528996,127.3545743
1175,GS25마장제일점,경기 이천시 마장면 오천로22 (오천리 277),이천시,37.2544029,127.3509868
1176,GS25마정로드점,경기 안성시 공도읍 서동대로4441 (마정리 144-2),안성시,37.0086674,127.1959938
1177,GS25만석공원점,경기 수원시 장안구 만석로177 (송죽동 272-37),수원시 장안구,37.3026873,126.9989779
1178,GS25만안구청점,"경기 안양시 만안구 문예로53, 102호 (안양6동 529-2)",안양시만안구,37.3864976,126.933313
1179,GS25만안초교점,"경기 안양시 만안구 안양로398번길42, 1층 상가 좌측 (안양2동 852-1)",안양시만안구,37.4076272,126.9162487
1180,GS25망포늘푸른점,"경기 수원시 영통구 영통로90번길24, 1층 102호 (망포동 485-4)",수원시 영통구,37.2382347,127.0596568
1181,GS25망포원룸점,경기 수원시 영통구 덕영대로1483번길16-4 (망포동 32-7),수원시 영통구,37.2464397,127.0528247
1182,GS25매교SK뷰점,"경기 수원시 팔달구 인계로20, 매교SK뷰푸르지오 상가1동 B101호, (매교동 209-14)",수원시 팔달구,37.2693441,127.0183895
1183,GS25매교유천점,"경기 수원시 팔달구 정조로623번길23, 1층 전체 (매교동 269-5)",수원시 팔달구,37.2647728,127.0138163
1184,GS25매교푸르지오점,"경기 수원시 팔달구 인계로20, 상가3동 102호,103호 (아파트 122동 뒷편) (매교동 209-14)",수원시 팔달구,37.2699394,127.0197618
1185,GS25매산로2가점,경기 수원시 팔달구 고화로13번길2(고등동 74-33),수원시 팔달구,37.2707442,127.0075574
1186,GS25매산로3가점,경기 수원시 팔달구 효원로23-5 (매산로3가 20-16),수원시 팔달구,37.2715492,127.0094196
1187,GS25매산중앙점,경기 수원시 팔달구 효원로60번길30(매산로3가 94-1),수원시 팔달구,37.2676852,127.0076843
1188,GS25매산팰리스점,"경기 수원시 팔달구 갓매산로71번길21-6, 101호 (매산로2가 27-6)",수원시 팔달구,37.2690885,127.0034288
1189,GS25매탄공단점,경기 수원시 영통구 신원로198번길72(매탄3동 514-13),수원시 영통구,37.2554295,127.0622952
1190,GS25매탄공원점,"경기 수원시 영통구 매탄로180, 1층 (매탄동 208-18)",수원시 영통구,37.2662742,127.0460619
1191,GS25매탄드림점,경기 수원시 영통구 인계로270번길2(매탄3동 872-1),수원시 영통구,37.2636055,127.046772
1192,GS25매탄삼천리점,경기 수원시 영통구 동수원로286번길13-2 (매탄동 1178-7),수원시 영통구,37.2549345,127.03711
1193,GS25매탄원룸점,"경기 수원시 영통구 인계로292, 26 (매탄동 867-1)",수원시 영통구,37.2629889,127.0492093
1194,GS25매탄위브점,"경기 수원시 영통구 효원로363 (매탄동 1352, 매탄위브하늘채)",수원시 영통구,37.2613995,127.0405068
1195,GS25매탄중부로점,경기 수원시 영통구 중부대로256번길35 (매탄동 141-11),수원시 영통구,37.272975,127.0432025
1196,GS25매탄힐스점,경기 수원시 영통구 권광로260번길36 (매탄동 176),수원시 영통구,37.2712178,127.0398591
1197,GS25매화스마트점,"경기 시흥시 수인로2892-1, 스마트스퀘어 지식산업센터 131호, 132호 (도창동 35-6)",시흥시,37.41366370000001,126.8207312
